Kavita Surve,,,,,,,,,,,,,,,,,,,,,,,,,,,,,,,
Days,1 Th,2 F,3 St,4 S,5 M,6 T,7 W,8 Th,9 F,10 St,11 S,12 M,13 T,14 W,15 Th,16 F,17 St,18 S,19 M,20 T,21 W,22 Th,23 F,24 St,25 S,26 M,27 T,28 W,29 Th,30 F,31 St
Status,½P,P,P,WO,P,P,P,P,P,P,WO,P,P,P,A,P,P,WO,A,P,P,P,P,A,WO,P,P,P,P,P,P
InTime,10:11,10:01,10:02,,10:23,10:02,09:52,10:05,10:15,10:21,,10:17,10:18,11:29,,10:14,10:21,,,10:08,09:52,09:43,09:50,,,09:49,09:49,09:52,09:53,10:01,09:48
OutTime,14:02,19:45,19:58,,21:02,,19:31,21:50,,22:00,,22:30,00:32,18:59,,19:13,17:13,,,19:18,18:52,19:02,19:38,,,18:57,19:28,19:06,19:27,19:24,19:09
Duration,03:51,08:29,08:28,00:00,08:07,08:28,08:38,08:25,08:15,08:09,00:00,08:13,08:12,07:30,00:00,08:59,06:52,00:00,00:00,09:10,09:00,09:19,08:40,00:00,00:00,09:08,09:39,09:14,09:34,09:23,09:21
Late By,00:41,00:31,00:32,,00:53,00:32,,00:35,00:45,00:51,,00:47,00:48,01:59,,00:44,00:51,,,00:38,,,,,,,,,,00:31,
Early By,04:27,,,,,,,,,,,,,,,,01:16,,,,,,,,,,,,,,
OT,,01:15,01:26,,02:32,,01:01,03:20,,03:30,,04:00,06:02,,,,,,,,,,01:08,,,,,,,,
Shift,GS,GS,GS,GS,GS,GS,GS,GS,GS,GS,GS,GS,GS,GS,GS,GS,GS,GS,GS,GS,GS,GS,GS,GS,GS,GS,GS,GS,GS,GS,GS
Saloni,,,,,,,,,,,,,,,,,,,,,,,,,,,,,,,
Days,1 Th,2 F,3 St,4 S,5 M,6 T,7 W,8 Th,9 F,10 St,11 S,12 M,13 T,14 W,15 Th,16 F,17 St,18 S,19 M,20 T,21 W,22 Th,23 F,24 St,25 S,26 M,27 T,28 W,29 Th,30 F,31 St
Status,A,A,A,WO,A,A,A,A,A,A,WO,A,A,A,A,A,A,WO,A,A,A,A,A,A,WO,A,A,A,A,A,A
InTime,,,,,,,,,,,,,,,,,,,,,,,,,,,,,,,
OutTime,,,,,,,,,,,,,,,,,,,,,,,,,,,,,,,
Duration,00:00,00:00,00:00,00:00,00:00,00:00,00:00,00:00,00:00,00:00,00:00,00:00,00:00,00:00,00:00,00:00,00:00,00:00,00:00,00:00,00:00,00:00,00:00,00:00,00:00,00:00,00:00,00:00,00:00,00:00,00:00
Late By,,,,,,,,,,,,,,,,,,,,,,,,,,,,,,,
Early By,,,,,,,,,,,,,,,,,,,,,,,,,,,,,,,
OT,,,,,,,,,,,,,,,,,,,,,,,,,,,,,,,
Shift,GS,GS,GS,GS,GS,GS,GS,GS,GS,GS,GS,GS,GS,GS,GS,GS,GS,GS,GS,GS,GS,GS,GS,GS,GS,GS,GS,GS,GS,GS,GS
Tanisha,,,,,,,,,,,,,,,,,,,,,,,,,,,,,,,
Days,1 Th,2 F,3 St,4 S,5 M,6 T,7 W,8 Th,9 F,10 St,11 S,12 M,13 T,14 W,15 Th,16 F,17 St,18 S,19 M,20 T,21 W,22 Th,23 F,24 St,25 S,26 M,27 T,28 W,29 Th,30 F,31 St
Status,A,A,A,WO,A,A,A,A,A,A,WO,A,A,A,A,A,A,WO,A,A,A,A,A,A,WO,A,A,A,A,A,A
InTime,,,,,,,,,,,,,,,,,,,,,,,,,,,,,,,
OutTime,,,,,,,,,,,,,,,,,,,,,,,,,,,,,,,
Duration,00:00,00:00,00:00,00:00,00:00,00:00,00:00,00:00,00:00,00:00,00:00,00:00,00:00,00:00,00:00,00:00,00:00,00:00,00:00,00:00,00:00,00:00,00:00,00:00,00:00,00:00,00:00,00:00,00:00,00:00,00:00
Late By,,,,,,,,,,,,,,,,,,,,,,,,,,,,,,,
Early By,,,,,,,,,,,,,,,,,,,,,,,,,,,,,,,
OT,,,,,,,,,,,,,,,,,,,,,,,,,,,,,,,
Shift,GS,GS,GS,GS,GS,GS,GS,GS,GS,GS,GS,GS,GS,GS,GS,GS,GS,GS,GS,GS,GS,GS,GS,GS,GS,GS,GS,GS,GS,GS,GS
Namrata,,,,,,,,,,,,,,,,,,,,,,,,,,,,,,,
Days,1 Th,2 F,3 St,4 S,5 M,6 T,7 W,8 Th,9 F,10 St,11 S,12 M,13 T,14 W,15 Th,16 F,17 St,18 S,19 M,20 T,21 W,22 Th,23 F,24 St,25 S,26 M,27 T,28 W,29 Th,30 F,31 St
Status,A,A,A,WO,A,A,A,A,A,A,WO,A,A,A,A,A,A,WO,A,A,A,A,A,A,WO,A,A,A,A,A,A
InTime,,,,,,,,,,,,,,,,,,,,,,,,,,,,,,,
OutTime,,,,,,,,,,,,,,,,,,,,,,,,,,,,,,,
Duration,00:00,00:00,00:00,00:00,00:00,00:00,00:00,00:00,00:00,00:00,00:00,00:00,00:00,00:00,00:00,00:00,00:00,00:00,00:00,00:00,00:00,00:00,00:00,00:00,00:00,00:00,00:00,00:00,00:00,00:00,00:00
Late By,,,,,,,,,,,,,,,,,,,,,,,,,,,,,,,
Early By,,,,,,,,,,,,,,,,,,,,,,,,,,,,,,,
OT,,,,,,,,,,,,,,,,,,,,,,,,,,,,,,,
Shift,GS,GS,GS,GS,GS,GS,GS,GS,GS,GS,GS,GS,GS,GS,GS,GS,GS,GS,GS,GS,GS,GS,GS,GS,GS,GS,GS,GS,GS,GS,GS
Vedant,,,,,,,,,,,,,,,,,,,,,,,,,,,,,,,
Days,1 Th,2 F,3 St,4 S,5 M,6 T,7 W,8 Th,9 F,10 St,11 S,12 M,13 T,14 W,15 Th,16 F,17 St,18 S,19 M,20 T,21 W,22 Th,23 F,24 St,25 S,26 M,27 T,28 W,29 Th,30 F,31 St
Status,A,A,A,WO,A,A,A,A,A,A,WO,A,A,A,A,A,A,WO,A,A,A,A,A,A,WO,A,A,A,A,A,A
InTime,,,,,,,,,,,,,,,,,,,,,,,,,,,,,,,
OutTime,,,,,,,,,,,,,,,,,,,,,,,,,,,,,,,
Duration,00:00,00:00,00:00,00:00,00:00,00:00,00:00,00:00,00:00,00:00,00:00,00:00,00:00,00:00,00:00,00:00,00:00,00:00,00:00,00:00,00:00,00:00,00:00,00:00,00:00,00:00,00:00,00:00,00:00,00:00,00:00
Late By,,,,,,,,,,,,,,,,,,,,,,,,,,,,,,,
Early By,,,,,,,,,,,,,,,,,,,,,,,,,,,,,,,
OT,,,,,,,,,,,,,,,,,,,,,,,,,,,,,,,
Shift,GS,GS,GS,GS,GS,GS,GS,GS,GS,GS,GS,GS,GS,GS,GS,GS,GS,GS,GS,GS,GS,GS,GS,GS,GS,GS,GS,GS,GS,GS,GS
Sneha Varghese,,,,,,,,,,,,,,,,,,,,,,,,,,,,,,,
Days,1 Th,2 F,3 St,4 S,5 M,6 T,7 W,8 Th,9 F,10 St,11 S,12 M,13 T,14 W,15 Th,16 F,17 St,18 S,19 M,20 T,21 W,22 Th,23 F,24 St,25 S,26 M,27 T,28 W,29 Th,30 F,31 St
Status,A,P,P,WO,P,P,P,P,P,P,WO,P,P,P,A,A,A,WO,A,P,P,P,P,P,WO,P,P,P,P,P,½P
InTime,,10:12,10:20,,09:55,10:14,09:53,10:32,10:33,10:18,,10:15,10:18,10:22,,,,,,10:08,10:02,09:53,10:11,10:29,,10:02,10:06,10:01,10:07,10:28,09:57
OutTime,,19:56,19:13,,21:12,19:37,21:42,20:51,19:40,19:48,,18:56,19:06,18:51,,,,,,19:36,19:15,19:02,19:25,18:54,,19:51,18:51,19:00,20:24,19:55,13:55
Duration,00:00,08:18,08:53,00:00,08:35,08:16,08:37,07:58,07:57,08:12,00:00,08:41,08:48,08:29,00:00,00:00,00:00,00:00,00:00,08:22,09:13,09:09,09:14,08:25,00:00,08:28,08:45,08:59,08:23,08:02,03:58
Late By,,00:42,00:50,,,00:44,,01:02,01:03,00:48,,00:45,00:48,00:52,,,,,,00:38,00:32,,00:41,00:59,,00:32,00:36,00:31,00:37,00:58,
Early By,,,,,,,,,,,,,,,,,,,,,,,,,,,,,,,04:34
OT,,01:26,,,02:42,01:07,03:12,02:21,01:10,01:18,,,,,,,,,,01:06,,,,,,01:21,,,01:52,01:25,
Shift,GS,GS,GS,GS,GS,GS,GS,GS,GS,GS,GS,GS,GS,GS,GS,GS,GS,GS,GS,GS,GS,GS,GS,GS,GS,GS,GS,GS,GS,GS,GS
Jui,,,,,,,,,,,,,,,,,,,,,,,,,,,,,,,
Days,1 Th,2 F,3 St,4 S,5 M,6 T,7 W,8 Th,9 F,10 St,11 S,12 M,13 T,14 W,15 Th,16 F,17 St,18 S,19 M,20 T,21 W,22 Th,23 F,24 St,25 S,26 M,27 T,28 W,29 Th,30 F,31 St
Status,A,A,P,WO,P,P,P,P,P,P,WO,P,P,P,A,A,P,WO,A,P,P,P,P,A,WO,P,P,P,P,P,P
InTime,,,09:56,,10:01,10:08,10:32,09:54,10:04,10:18,,11:23,10:12,09:58,,,09:43,,,09:51,09:58,09:50,09:54,,,09:55,09:55,10:00,09:49,09:57,09:56
OutTime,,,18:57,,19:08,20:54,20:54,20:34,20:42,20:28,,19:02,21:07,18:56,,,18:42,,,18:52,19:11,18:50,18:55,,,18:53,18:52,19:03,18:52,18:54,18:57
Duration,00:00,00:00,09:01,00:00,09:07,08:22,07:58,08:36,08:26,08:12,00:00,07:39,08:18,08:58,00:00,00:00,08:59,00:00,00:00,09:01,09:13,09:00,09:01,00:00,00:00,08:58,08:57,09:03,09:03,08:57,09:01
Late By,,,,,00:31,00:38,01:02,,00:34,00:48,,01:53,00:42,,,,,,,,,,,,,,,,,,
Early By,,,,,,,,,,,,,,,,,,,,,,,,,,,,,,,
OT,,,,,,02:24,02:24,02:04,02:12,01:58,,,02:37,,,,,,,,,,,,,,,,,,
Shift,GS,GS,GS,GS,GS,GS,GS,GS,GS,GS,GS,GS,GS,GS,GS,GS,GS,GS,GS,GS,GS,GS,GS,GS,GS,GS,GS,GS,GS,GS,GS
Yashashvi,,,,,,,,,,,,,,,,,,,,,,,,,,,,,,,
Days,1 Th,2 F,3 St,4 S,5 M,6 T,7 W,8 Th,9 F,10 St,11 S,12 M,13 T,14 W,15 Th,16 F,17 St,18 S,19 M,20 T,21 W,22 Th,23 F,24 St,25 S,26 M,27 T,28 W,29 Th,30 F,31 St
Status,A,A,A,WO,A,A,A,A,A,A,WO,A,A,A,A,A,A,WO,A,A,A,A,A,A,WO,A,A,A,A,A,A
InTime,,,,,,,,,,,,,,,,,,,,,,,,,,,,,,,
OutTime,,,,,,,,,,,,,,,,,,,,,,,,,,,,,,,
Duration,00:00,00:00,00:00,00:00,00:00,00:00,00:00,00:00,00:00,00:00,00:00,00:00,00:00,00:00,00:00,00:00,00:00,00:00,00:00,00:00,00:00,00:00,00:00,00:00,00:00,00:00,00:00,00:00,00:00,00:00,00:00
Late By,,,,,,,,,,,,,,,,,,,,,,,,,,,,,,,
Early By,,,,,,,,,,,,,,,,,,,,,,,,,,,,,,,
OT,,,,,,,,,,,,,,,,,,,,,,,,,,,,,,,
Shift,GS,GS,GS,GS,GS,GS,GS,GS,GS,GS,GS,GS,GS,GS,GS,GS,GS,GS,GS,GS,GS,GS,GS,GS,GS,GS,GS,GS,GS,GS,GS
Gaurav,,,,,,,,,,,,,,,,,,,,,,,,,,,,,,,
Days,1 Th,2 F,3 St,4 S,5 M,6 T,7 W,8 Th,9 F,10 St,11 S,12 M,13 T,14 W,15 Th,16 F,17 St,18 S,19 M,20 T,21 W,22 Th,23 F,24 St,25 S,26 M,27 T,28 W,29 Th,30 F,31 St
Status,P,P,P,WO,P,P,P,P,P,P,WO,P,P,A,A,A,A,WO,A,A,P,P,P,P,WO,P,P,P,P,P,A
InTime,00:09,09:56,10:02,,10:03,10:04,10:06,10:09,10:04,09:56,,09:54,09:45,,,,,,,,09:57,10:02,09:55,09:55,,09:41,10:02,10:10,10:02,10:04,
OutTime,,19:05,19:13,,19:28,,20:19,20:51,20:29,19:51,,20:14,21:06,,,,,,,,19:37,18:49,19:12,,,,18:37,19:14,18:58,19:47,
Duration,18:21,09:09,09:11,00:00,09:25,08:26,08:24,08:21,08:26,08:34,00:00,08:36,08:45,00:00,00:00,00:00,00:00,00:00,00:00,00:00,08:33,08:47,09:17,08:35,00:00,08:49,08:35,09:04,08:56,08:26,00:00
Late By,,,00:32,,00:33,00:34,00:36,00:39,00:34,,,,,,,,,,,,,00:32,,,,,00:32,00:40,00:32,00:34,
Early By,,,,,,,,,,,,,,,,,,,,,,,,,,,,,,,
OT,,,,,,,01:49,02:21,01:59,01:21,,01:44,02:36,,,,,,,,01:07,,,,,,,,,01:17,
Shift,GS,GS,GS,GS,GS,GS,GS,GS,GS,GS,GS,GS,GS,GS,GS,GS,GS,GS,GS,GS,GS,GS,GS,GS,GS,GS,GS,GS,GS,GS,GS
Hrutika,,,,,,,,,,,,,,,,,,,,,,,,,,,,,,,
Days,1 Th,2 F,3 St,4 S,5 M,6 T,7 W,8 Th,9 F,10 St,11 S,12 M,13 T,14 W,15 Th,16 F,17 St,18 S,19 M,20 T,21 W,22 Th,23 F,24 St,25 S,26 M,27 T,28 W,29 Th,30 F,31 St
Status,A,A,A,WO,A,A,A,A,A,A,WO,A,A,A,A,A,A,WO,A,A,A,A,A,A,WO,A,A,A,A,A,A
InTime,,,,,,,,,,,,,,,,,,,,,,,,,,,,,,,
OutTime,,,,,,,,,,,,,,,,,,,,,,,,,,,,,,,
Duration,00:00,00:00,00:00,00:00,00:00,00:00,00:00,00:00,00:00,00:00,00:00,00:00,00:00,00:00,00:00,00:00,00:00,00:00,00:00,00:00,00:00,00:00,00:00,00:00,00:00,00:00,00:00,00:00,00:00,00:00,00:00
Late By,,,,,,,,,,,,,,,,,,,,,,,,,,,,,,,
Early By,,,,,,,,,,,,,,,,,,,,,,,,,,,,,,,
OT,,,,,,,,,,,,,,,,,,,,,,,,,,,,,,,
Shift,GS,GS,GS,GS,GS,GS,GS,GS,GS,GS,GS,GS,GS,GS,GS,GS,GS,GS,GS,GS,GS,GS,GS,GS,GS,GS,GS,GS,GS,GS,GS
Shubham Dhembre,,,,,,,,,,,,,,,,,,,,,,,,,,,,,,,
Days,1 Th,2 F,3 St,4 S,5 M,6 T,7 W,8 Th,9 F,10 St,11 S,12 M,13 T,14 W,15 Th,16 F,17 St,18 S,19 M,20 T,21 W,22 Th,23 F,24 St,25 S,26 M,27 T,28 W,29 Th,30 F,31 St
Status,P,P,P,WO,P,P,P,P,P,P,WO,P,P,P,A,P,A,WO,A,P,P,P,P,P,WO,P,P,P,P,P,P
InTime,09:49,09:56,09:51,,09:45,09:53,10:03,09:32,09:46,09:50,,09:51,10:03,11:44,,10:04,,,,09:56,09:46,09:59,09:47,09:48,,09:47,09:47,09:49,09:38,09:56,10:07
OutTime,19:27,19:38,19:33,,19:51,20:19,,21:49,22:47,21:26,,22:16,00:33,18:51,,19:03,,,,19:12,18:49,19:25,19:35,19:23,,19:08,19:14,18:58,19:00,19:23,19:08
Duration,09:38,08:34,08:39,00:00,08:45,08:37,08:27,08:58,08:44,08:40,00:00,08:39,08:27,07:07,00:00,08:59,00:00,00:00,00:00,09:16,09:03,09:26,08:43,09:35,00:00,09:21,09:27,09:09,09:22,09:27,09:01
Late By,,,,,,,00:33,,,,,,00:33,02:14,,00:34,,,,,,,,,,,,,,,00:37
Early By,,,,,,,,,,,,,,,,,,,,,,,,,,,,,,,
OT,,01:08,01:03,,01:21,01:49,,03:19,04:17,02:56,,03:46,06:03,,,,,,,,,,01:05,,,,,,,,
Shift,GS,GS,GS,GS,GS,GS,GS,GS,GS,GS,GS,GS,GS,GS,GS,GS,GS,GS,GS,GS,GS,GS,GS,GS,GS,GS,GS,GS,GS,GS,GS
Rabana,,,,,,,,,,,,,,,,,,,,,,,,,,,,,,,
Days,1 Th,2 F,3 St,4 S,5 M,6 T,7 W,8 Th,9 F,10 St,11 S,12 M,13 T,14 W,15 Th,16 F,17 St,18 S,19 M,20 T,21 W,22 Th,23 F,24 St,25 S,26 M,27 T,28 W,29 Th,30 F,31 St
Status,P,P,P,WO,A,P,P,P,P,P,WO,P,P,P,A,P,P,WO,A,P,P,P,A,A,WO,A,P,P,P,P,P
InTime,09:41,09:46,10:05,,,09:33,09:30,09:24,09:35,09:59,,10:22,09:48,10:53,,10:13,09:22,,,10:17,09:33,09:33,,,,,09:39,09:36,10:17,09:38,09:48
OutTime,18:57,18:53,19:10,,,20:10,20:51,21:50,21:48,21:37,,22:09,00:15,,,19:13,18:04,,,19:19,19:12,18:55,,,,,19:21,18:39,19:27,19:11,19:08
Duration,09:16,09:07,09:05,00:00,00:00,08:57,09:00,09:06,08:55,08:31,00:00,08:08,08:42,07:37,00:00,09:00,08:42,00:00,00:00,09:02,09:35,09:22,00:00,00:00,00:00,00:00,09:42,09:03,09:10,09:33,09:20
Late By,,,00:35,,,,,,,,,00:52,,01:23,,00:43,,,,00:47,,,,,,,,,00:47,,
Early By,,,,,,,,,,,,,,,,,,,,,,,,,,,,,,,
OT,,,,,,01:40,02:21,03:20,03:18,03:07,,03:39,05:45,,,,,,,,,,,,,,,,,,
Shift,GS,GS,GS,GS,GS,GS,GS,GS,GS,GS,GS,GS,GS,GS,GS,GS,GS,GS,GS,GS,GS,GS,GS,GS,GS,GS,GS,GS,GS,GS,GS
Rashmi Joshi,,,,,,,,,,,,,,,,,,,,,,,,,,,,,,,
Days,1 Th,2 F,3 St,4 S,5 M,6 T,7 W,8 Th,9 F,10 St,11 S,12 M,13 T,14 W,15 Th,16 F,17 St,18 S,19 M,20 T,21 W,22 Th,23 F,24 St,25 S,26 M,27 T,28 W,29 Th,30 F,31 St
Status,P,P,P,WO,P,P,P,P,P,P,WO,P,P,P,A,P,A,WO,A,P,P,P,P,A,WO,P,P,P,P,P,P
InTime,10:02,09:46,09:59,,09:56,09:52,10:02,10:07,10:07,09:51,,09:59,10:03,10:53,,09:34,,,,09:51,09:48,09:52,09:52,,,09:55,09:58,09:57,09:53,09:48,10:01
OutTime,19:22,19:32,19:56,,21:01,20:10,20:51,21:49,22:08,21:47,,22:30,00:15,18:41,,18:39,,,,19:16,18:50,18:55,19:32,,,19:07,19:28,19:06,19:27,19:05,19:05
Duration,09:20,08:44,08:31,00:00,08:34,08:38,08:28,08:23,08:23,08:39,00:00,08:31,08:27,07:48,00:00,09:05,00:00,00:00,00:00,09:25,09:02,09:03,08:38,00:00,00:00,09:12,09:30,09:09,09:34,09:17,09:04
Late By,00:32,,,,,,00:32,00:37,00:37,,,,00:33,01:23,,,,,,,,,,,,,,,,,00:31
Early By,,,,,,,,,,,,,,,,,,,,,,,,,,,,,,,
OT,,01:02,01:26,,02:31,01:40,02:21,03:18,03:38,03:17,,04:00,05:45,,,,,,,,,,01:02,,,,,,,,
Shift,GS,GS,GS,GS,GS,GS,GS,GS,GS,GS,GS,GS,GS,GS,GS,GS,GS,GS,GS,GS,GS,GS,GS,GS,GS,GS,GS,GS,GS,GS,GS
Ammar,,,,,,,,,,,,,,,,,,,,,,,,,,,,,,,
Days,1 Th,2 F,3 St,4 S,5 M,6 T,7 W,8 Th,9 F,10 St,11 S,12 M,13 T,14 W,15 Th,16 F,17 St,18 S,19 M,20 T,21 W,22 Th,23 F,24 St,25 S,26 M,27 T,28 W,29 Th,30 F,31 St
Status,A,A,A,WO,A,A,A,A,A,A,WO,A,A,A,A,A,A,WO,A,A,A,A,A,A,WO,A,A,A,A,A,A
InTime,,,,,,,,,,,,,,,,,,,,,,,,,,,,,,,
OutTime,,,,,,,,,,,,,,,,,,,,,,,,,,,,,,,
Duration,00:00,00:00,00:00,00:00,00:00,00:00,00:00,00:00,00:00,00:00,00:00,00:00,00:00,00:00,00:00,00:00,00:00,00:00,00:00,00:00,00:00,00:00,00:00,00:00,00:00,00:00,00:00,00:00,00:00,00:00,00:00
Late By,,,,,,,,,,,,,,,,,,,,,,,,,,,,,,,
Early By,,,,,,,,,,,,,,,,,,,,,,,,,,,,,,,
OT,,,,,,,,,,,,,,,,,,,,,,,,,,,,,,,
Shift,GS,GS,GS,GS,GS,GS,GS,GS,GS,GS,GS,GS,GS,GS,GS,GS,GS,GS,GS,GS,GS,GS,GS,GS,GS,GS,GS,GS,GS,GS,GS
Harsh,,,,,,,,,,,,,,,,,,,,,,,,,,,,,,,
Days,1 Th,2 F,3 St,4 S,5 M,6 T,7 W,8 Th,9 F,10 St,11 S,12 M,13 T,14 W,15 Th,16 F,17 St,18 S,19 M,20 T,21 W,22 Th,23 F,24 St,25 S,26 M,27 T,28 W,29 Th,30 F,31 St
Status,A,A,A,WO,A,A,A,A,A,A,WO,A,A,A,A,A,A,WO,A,A,A,A,A,A,WO,A,A,A,A,A,A
InTime,,,,,,,,,,,,,,,,,,,,,,,,,,,,,,,
OutTime,,,,,,,,,,,,,,,,,,,,,,,,,,,,,,,
Duration,00:00,00:00,00:00,00:00,00:00,00:00,00:00,00:00,00:00,00:00,00:00,00:00,00:00,00:00,00:00,00:00,00:00,00:00,00:00,00:00,00:00,00:00,00:00,00:00,00:00,00:00,00:00,00:00,00:00,00:00,00:00
Late By,,,,,,,,,,,,,,,,,,,,,,,,,,,,,,,
Early By,,,,,,,,,,,,,,,,,,,,,,,,,,,,,,,
OT,,,,,,,,,,,,,,,,,,,,,,,,,,,,,,,
Shift,GS,GS,GS,GS,GS,GS,GS,GS,GS,GS,GS,GS,GS,GS,GS,GS,GS,GS,GS,GS,GS,GS,GS,GS,GS,GS,GS,GS,GS,GS,GS
Prashant Bhuwad,,,,,,,,,,,,,,,,,,,,,,,,,,,,,,,
Days,1 Th,2 F,3 St,4 S,5 M,6 T,7 W,8 Th,9 F,10 St,11 S,12 M,13 T,14 W,15 Th,16 F,17 St,18 S,19 M,20 T,21 W,22 Th,23 F,24 St,25 S,26 M,27 T,28 W,29 Th,30 F,31 St
Status,P,A,P,WO,P,P,P,P,P,P,WO,P,P,P,A,P,A,WO,A,P,P,P,P,P,WO,P,P,P,P,P,A
InTime,10:05,,09:38,,13:53,09:40,09:40,09:36,09:30,09:21,,09:32,09:33,09:24,,09:27,,,,09:37,09:28,11:59,09:23,09:17,,09:43,09:34,09:38,09:32,09:56,
OutTime,18:39,,18:47,,18:39,18:35,18:42,18:48,18:47,18:32,,18:39,18:39,18:35,,18:38,,,,18:40,18:40,18:36,18:33,18:34,,18:40,19:02,18:41,18:39,15:23,
Duration,08:34,00:00,09:09,00:00,04:46,08:55,09:02,09:12,09:17,09:11,00:00,09:07,09:06,09:11,00:00,09:11,00:00,00:00,00:00,09:03,09:12,06:37,09:10,09:17,00:00,08:57,09:28,09:03,09:07,05:27,00:00
Late By,00:35,,,,04:23,,,,,,,,,,,,,,,,,02:29,,,,,,,,,
Early By,,,,,,,,,,,,,,,,,,,,,,,,,,,,,,03:06,
OT,,,,,,,,,,,,,,,,,,,,,,,,,,,,,,,
Shift,GS,GS,GS,GS,GS,GS,GS,GS,GS,GS,GS,GS,GS,GS,GS,GS,GS,GS,GS,GS,GS,GS,GS,GS,GS,GS,GS,GS,GS,GS,GS
Shavik,,,,,,,,,,,,,,,,,,,,,,,,,,,,,,,
Days,1 Th,2 F,3 St,4 S,5 M,6 T,7 W,8 Th,9 F,10 St,11 S,12 M,13 T,14 W,15 Th,16 F,17 St,18 S,19 M,20 T,21 W,22 Th,23 F,24 St,25 S,26 M,27 T,28 W,29 Th,30 F,31 St
Status,A,A,A,WO,A,A,A,A,A,A,WO,A,A,A,A,A,A,WO,A,A,A,A,A,A,WO,A,A,A,A,A,A
InTime,,,,,,,,,,,,,,,,,,,,,,,,,,,,,,,
OutTime,,,,,,,,,,,,,,,,,,,,,,,,,,,,,,,
Duration,00:00,00:00,00:00,00:00,00:00,00:00,00:00,00:00,00:00,00:00,00:00,00:00,00:00,00:00,00:00,00:00,00:00,00:00,00:00,00:00,00:00,00:00,00:00,00:00,00:00,00:00,00:00,00:00,00:00,00:00,00:00
Late By,,,,,,,,,,,,,,,,,,,,,,,,,,,,,,,
Early By,,,,,,,,,,,,,,,,,,,,,,,,,,,,,,,
OT,,,,,,,,,,,,,,,,,,,,,,,,,,,,,,,
Shift,GS,GS,GS,GS,GS,GS,GS,GS,GS,GS,GS,GS,GS,GS,GS,GS,GS,GS,GS,GS,GS,GS,GS,GS,GS,GS,GS,GS,GS,GS,GS
Vinaya Pathak,,,,,,,,,,,,,,,,,,,,,,,,,,,,,,,
Days,1 Th,2 F,3 St,4 S,5 M,6 T,7 W,8 Th,9 F,10 St,11 S,12 M,13 T,14 W,15 Th,16 F,17 St,18 S,19 M,20 T,21 W,22 Th,23 F,24 St,25 S,26 M,27 T,28 W,29 Th,30 F,31 St
Status,P,P,A,WO,P,P,P,P,P,A,WO,P,P,P,A,P,P,WO,A,P,P,P,P,P,WO,P,P,P,P,P,P
InTime,10:49,09:52,,,09:43,09:49,09:47,09:48,09:48,,,09:39,09:38,09:38,,09:44,10:07,,,09:39,09:38,09:41,09:39,09:40,,09:42,09:39,09:48,09:34,09:37,09:40
OutTime,18:46,15:44,,,19:08,19:17,19:16,19:20,20:09,,,18:33,19:29,18:47,,18:40,18:47,,,18:40,19:09,18:43,18:55,18:50,,18:47,18:38,18:54,18:48,18:43,19:37
Duration,07:57,05:52,00:00,00:00,09:25,09:28,09:29,09:32,08:42,00:00,00:00,08:54,09:51,09:08,00:00,08:56,08:40,00:00,00:00,09:01,09:31,09:02,09:16,09:10,00:00,09:05,08:59,09:06,09:14,09:06,08:50
Late By,01:19,,,,,,,,,,,,,,,,00:37,,,,,,,,,,,,,,
Early By,,02:45,,,,,,,,,,,,,,,,,,,,,,,,,,,,,
OT,,,,,,,,,01:39,,,,,,,,,,,,,,,,,,,,,,01:07
Shift,GS,GS,GS,GS,GS,GS,GS,GS,GS,GS,GS,GS,GS,GS,GS,GS,GS,GS,GS,GS,GS,GS,GS,GS,GS,GS,GS,GS,GS,GS,GS
Kiran,,,,,,,,,,,,,,,,,,,,,,,,,,,,,,,
Days,1 Th,2 F,3 St,4 S,5 M,6 T,7 W,8 Th,9 F,10 St,11 S,12 M,13 T,14 W,15 Th,16 F,17 St,18 S,19 M,20 T,21 W,22 Th,23 F,24 St,25 S,26 M,27 T,28 W,29 Th,30 F,31 St
Status,P,P,P,WO,P,P,P,½P,P,P,WO,P,P,P,A,P,P,WO,A,P,P,P,A,A,WO,P,P,P,P,P,P
InTime,10:05,09:56,09:57,,09:48,10:00,09:40,10:01,09:57,10:08,,09:50,09:49,09:47,,10:00,09:42,,,09:56,09:49,09:49,,,,10:17,10:09,10:03,09:42,09:58,09:57
OutTime,18:52,18:45,18:44,,18:39,18:41,18:42,14:16,18:50,18:46,,18:39,18:39,18:36,,18:42,18:46,,,18:40,18:41,18:49,,,,18:42,19:02,20:19,18:39,18:46,18:52
Duration,08:47,08:49,08:47,00:00,08:51,08:41,09:02,04:15,08:53,08:38,00:00,08:49,08:50,08:49,00:00,08:42,09:04,00:00,00:00,08:44,08:52,09:00,00:00,00:00,00:00,08:25,08:53,08:27,08:57,08:48,08:55
Late By,00:35,,,,,,,00:31,,00:38,,,,,,,,,,,,,,,,00:47,00:39,00:33,,,
Early By,,,,,,,,04:13,,,,,,,,,,,,,,,,,,,,,,,
OT,,,,,,,,,,,,,,,,,,,,,,,,,,,,01:49,,,
Shift,GS,GS,GS,GS,GS,GS,GS,GS,GS,GS,GS,GS,GS,GS,GS,GS,GS,GS,GS,GS,GS,GS,GS,GS,GS,GS,GS,GS,GS,GS,GS
Shweta,,,,,,,,,,,,,,,,,,,,,,,,,,,,,,,
Days,1 Th,2 F,3 St,4 S,5 M,6 T,7 W,8 Th,9 F,10 St,11 S,12 M,13 T,14 W,15 Th,16 F,17 St,18 S,19 M,20 T,21 W,22 Th,23 F,24 St,25 S,26 M,27 T,28 W,29 Th,30 F,31 St
Status,P,P,P,WO,P,P,P,P,A,A,WO,P,P,P,A,P,P,WO,A,P,P,P,P,P,WO,A,P,P,P,P,P
InTime,09:52,09:56,09:59,,10:04,09:36,09:53,09:40,,,,09:44,09:52,09:55,,09:45,09:56,,,09:44,09:49,09:47,09:58,09:47,,,09:56,10:02,09:54,09:54,10:02
OutTime,18:54,19:03,19:16,,19:13,18:44,19:07,18:51,,,,18:52,18:53,18:59,,18:50,19:00,,,18:59,18:51,,18:58,18:51,,,19:05,19:05,19:11,18:51,19:04
Duration,09:02,09:07,09:17,00:00,09:09,09:08,09:14,09:11,00:00,00:00,00:00,09:08,09:01,09:04,00:00,09:05,09:04,00:00,00:00,09:15,09:02,08:43,09:00,09:04,00:00,00:00,09:09,09:03,09:17,08:57,09:02
Late By,,,,,00:34,,,,,,,,,,,,,,,,,,,,,,,00:32,,,00:32
Early By,,,,,,,,,,,,,,,,,,,,,,,,,,,,,,,
OT,,,,,,,,,,,,,,,,,,,,,,,,,,,,,,,
Shift,GS,GS,GS,GS,GS,GS,GS,GS,GS,GS,GS,GS,GS,GS,GS,GS,GS,GS,GS,GS,GS,GS,GS,GS,GS,GS,GS,GS,GS,GS,GS
Komal,,,,,,,,,,,,,,,,,,,,,,,,,,,,,,,
Days,1 Th,2 F,3 St,4 S,5 M,6 T,7 W,8 Th,9 F,10 St,11 S,12 M,13 T,14 W,15 Th,16 F,17 St,18 S,19 M,20 T,21 W,22 Th,23 F,24 St,25 S,26 M,27 T,28 W,29 Th,30 F,31 St
Status,P,P,P,WO,P,P,P,P,P,P,WO,P,P,P,A,P,P,WO,A,P,P,P,P,A,WO,P,P,P,P,P,P
InTime,10:09,09:51,10:17,,09:37,10:32,09:58,09:56,09:58,10:22,,10:19,09:46,09:46,,09:57,09:56,,,09:49,09:41,10:00,09:45,,,09:58,09:55,09:53,09:44,09:57,09:50
OutTime,19:25,20:23,18:49,,21:03,19:20,21:04,20:51,20:38,19:39,,20:08,21:07,18:48,,19:08,18:42,,,19:31,19:08,18:46,19:00,,,18:49,18:43,19:04,19:10,18:54,19:00
Duration,09:16,08:39,08:32,00:00,08:53,08:48,08:32,08:34,08:32,08:08,00:00,08:11,08:44,09:02,00:00,09:11,08:46,00:00,00:00,08:41,09:27,08:46,09:15,00:00,00:00,08:51,08:48,09:11,09:26,08:57,09:10
Late By,00:39,,00:47,,,01:02,,,,00:52,,00:49,,,,,,,,,,,,,,,,,,,
Early By,,,,,,,,,,,,,,,,,,,,,,,,,,,,,,,
OT,,01:53,,,02:33,,02:34,02:21,02:08,01:09,,01:38,02:37,,,,,,,01:01,,,,,,,,,,,
Shift,GS,GS,GS,GS,GS,GS,GS,GS,GS,GS,GS,GS,GS,GS,GS,GS,GS,GS,GS,GS,GS,GS,GS,GS,GS,GS,GS,GS,GS,GS,GS
Nitin Panicker,,,,,,,,,,,,,,,,,,,,,,,,,,,,,,,
Days,1 Th,2 F,3 St,4 S,5 M,6 T,7 W,8 Th,9 F,10 St,11 S,12 M,13 T,14 W,15 Th,16 F,17 St,18 S,19 M,20 T,21 W,22 Th,23 F,24 St,25 S,26 M,27 T,28 W,29 Th,30 F,31 St
Status,P,P,½P,WO,P,P,P,A,P,P,WO,P,P,P,A,½P,A,WO,A,P,P,P,P,P,WO,P,P,P,P,P,P
InTime,10:13,09:56,10:00,,10:09,09:58,10:19,,09:45,10:13,,09:44,09:43,09:50,,09:57,,,,10:08,09:39,09:45,09:58,10:00,,09:50,09:52,10:09,09:58,10:02,09:49
OutTime,,19:05,13:36,,19:02,18:38,19:15,,18:48,18:37,,18:49,18:42,18:51,,13:37,,,,18:46,18:40,15:16,18:43,,,18:40,18:35,19:01,18:58,18:47,18:49
Duration,08:17,09:09,03:36,00:00,08:53,08:40,08:56,00:00,09:03,08:24,00:00,09:05,08:59,09:01,00:00,03:40,00:00,00:00,00:00,08:38,09:01,05:31,08:45,08:30,00:00,08:50,08:43,08:52,09:00,08:45,09:00
Late By,00:43,,,,00:39,,00:49,,,00:43,,,,,,,,,,00:38,,,,,,,,00:39,,00:32,
Early By,,,04:53,,,,,,,,,,,,,04:52,,,,,,03:13,,,,,,,,,
OT,,,,,,,,,,,,,,,,,,,,,,,,,,,,,,,
Shift,GS,GS,GS,GS,GS,GS,GS,GS,GS,GS,GS,GS,GS,GS,GS,GS,GS,GS,GS,GS,GS,GS,GS,GS,GS,GS,GS,GS,GS,GS,GS
Divyang,,,,,,,,,,,,,,,,,,,,,,,,,,,,,,,
Days,1 Th,2 F,3 St,4 S,5 M,6 T,7 W,8 Th,9 F,10 St,11 S,12 M,13 T,14 W,15 Th,16 F,17 St,18 S,19 M,20 T,21 W,22 Th,23 F,24 St,25 S,26 M,27 T,28 W,29 Th,30 F,31 St
Status,A,A,A,WO,A,A,A,A,A,A,WO,A,A,A,A,A,A,WO,A,A,A,A,A,A,WO,A,A,A,A,A,A
InTime,,,,,,,,,,,,,,,,,,,,,,,,,,,,,,,
OutTime,,,,,,,,,,,,,,,,,,,,,,,,,,,,,,,
Duration,00:00,00:00,00:00,00:00,00:00,00:00,00:00,00:00,00:00,00:00,00:00,00:00,00:00,00:00,00:00,00:00,00:00,00:00,00:00,00:00,00:00,00:00,00:00,00:00,00:00,00:00,00:00,00:00,00:00,00:00,00:00
Late By,,,,,,,,,,,,,,,,,,,,,,,,,,,,,,,
Early By,,,,,,,,,,,,,,,,,,,,,,,,,,,,,,,
OT,,,,,,,,,,,,,,,,,,,,,,,,,,,,,,,
Shift,GS,GS,GS,GS,GS,GS,GS,GS,GS,GS,GS,GS,GS,GS,GS,GS,GS,GS,GS,GS,GS,GS,GS,GS,GS,GS,GS,GS,GS,GS,GS
sajid,,,,,,,,,,,,,,,,,,,,,,,,,,,,,,,
Days,1 Th,2 F,3 St,4 S,5 M,6 T,7 W,8 Th,9 F,10 St,11 S,12 M,13 T,14 W,15 Th,16 F,17 St,18 S,19 M,20 T,21 W,22 Th,23 F,24 St,25 S,26 M,27 T,28 W,29 Th,30 F,31 St
Status,P,P,P,WO,P,P,P,P,P,P,WO,P,P,P,A,P,A,WO,A,P,A,A,A,A,WO,P,P,P,P,P,P
InTime,09:33,09:40,09:23,,09:30,09:31,09:31,09:26,09:35,09:19,,09:31,09:19,09:32,,09:35,,,,09:40,,,,,,09:27,09:35,09:22,09:26,09:24,09:22
OutTime,18:34,18:40,18:32,,18:44,18:37,18:35,18:30,18:40,18:35,,18:34,18:34,18:35,,18:37,,,,18:41,,,,,,18:32,18:35,18:34,18:32,18:31,18:53
Duration,09:01,09:00,09:09,00:00,09:14,09:06,09:04,09:04,09:05,09:16,00:00,09:03,09:15,09:03,00:00,09:02,00:00,00:00,00:00,09:01,00:00,00:00,00:00,00:00,00:00,09:05,09:00,09:12,09:06,09:07,09:31
Late By,,,,,,,,,,,,,,,,,,,,,,,,,,,,,,,
Early By,,,,,,,,,,,,,,,,,,,,,,,,,,,,,,,
OT,,,,,,,,,,,,,,,,,,,,,,,,,,,,,,,
Shift,GS,GS,GS,GS,GS,GS,GS,GS,GS,GS,GS,GS,GS,GS,GS,GS,GS,GS,GS,GS,GS,GS,GS,GS,GS,GS,GS,GS,GS,GS,GS
Deepika,,,,,,,,,,,,,,,,,,,,,,,,,,,,,,,
Days,1 Th,2 F,3 St,4 S,5 M,6 T,7 W,8 Th,9 F,10 St,11 S,12 M,13 T,14 W,15 Th,16 F,17 St,18 S,19 M,20 T,21 W,22 Th,23 F,24 St,25 S,26 M,27 T,28 W,29 Th,30 F,31 St
Status,A,A,A,WO,A,A,A,A,A,A,WO,A,A,A,A,A,A,WO,A,A,A,A,A,A,WO,A,A,A,A,A,A
InTime,,,,,,,,,,,,,,,,,,,,,,,,,,,,,,,
OutTime,,,,,,,,,,,,,,,,,,,,,,,,,,,,,,,
Duration,00:00,00:00,00:00,00:00,00:00,00:00,00:00,00:00,00:00,00:00,00:00,00:00,00:00,00:00,00:00,00:00,00:00,00:00,00:00,00:00,00:00,00:00,00:00,00:00,00:00,00:00,00:00,00:00,00:00,00:00,00:00
Late By,,,,,,,,,,,,,,,,,,,,,,,,,,,,,,,
Early By,,,,,,,,,,,,,,,,,,,,,,,,,,,,,,,
OT,,,,,,,,,,,,,,,,,,,,,,,,,,,,,,,
Shift,GS,GS,GS,GS,GS,GS,GS,GS,GS,GS,GS,GS,GS,GS,GS,GS,GS,GS,GS,GS,GS,GS,GS,GS,GS,GS,GS,GS,GS,GS,GS
Adhinshu,,,,,,,,,,,,,,,,,,,,,,,,,,,,,,,
Days,1 Th,2 F,3 St,4 S,5 M,6 T,7 W,8 Th,9 F,10 St,11 S,12 M,13 T,14 W,15 Th,16 F,17 St,18 S,19 M,20 T,21 W,22 Th,23 F,24 St,25 S,26 M,27 T,28 W,29 Th,30 F,31 St
Status,A,A,A,WO,A,A,A,A,A,A,WO,A,A,A,A,½P,A,WO,A,½P,A,A,A,A,WO,A,A,A,A,A,A
InTime,,,,,,,,,,,,,,,,19:42,,,,20:52,,,,,,,,,,,
OutTime,,,,,,,,,,,,,,,,,,,,,,,,,,,,,,,
Duration,00:00,00:00,00:00,00:00,00:00,00:00,00:00,00:00,00:00,00:00,00:00,00:00,00:00,00:00,00:00,00:01,00:00,00:00,00:00,00:01,00:00,00:00,00:00,00:00,00:00,00:00,00:00,00:00,00:00,00:00,00:00
Late By,,,,,,,,,,,,,,,,10:12,,,,11:22,,,,,,,,,,,
Early By,,,,,,,,,,,,,,,,,,,,,,,,,,,,,,,
OT,,,,,,,,,,,,,,,,06:47,,,,05:37,,,,,,,,,,,
Shift,GS,GS,GS,GS,GS,GS,GS,GS,GS,GS,GS,GS,GS,GS,GS,GS,GS,GS,GS,GS,GS,GS,GS,GS,GS,GS,GS,GS,GS,GS,GS
Mehnaaz,,,,,,,,,,,,,,,,,,,,,,,,,,,,,,,
Days,1 Th,2 F,3 St,4 S,5 M,6 T,7 W,8 Th,9 F,10 St,11 S,12 M,13 T,14 W,15 Th,16 F,17 St,18 S,19 M,20 T,21 W,22 Th,23 F,24 St,25 S,26 M,27 T,28 W,29 Th,30 F,31 St
Status,A,A,A,WO,A,A,A,A,A,A,WO,A,A,A,A,A,A,WO,A,A,A,A,A,A,WO,A,A,A,A,A,A
InTime,,,,,,,,,,,,,,,,,,,,,,,,,,,,,,,
OutTime,,,,,,,,,,,,,,,,,,,,,,,,,,,,,,,
Duration,00:00,00:00,00:00,00:00,00:00,00:00,00:00,00:00,00:00,00:00,00:00,00:00,00:00,00:00,00:00,00:00,00:00,00:00,00:00,00:00,00:00,00:00,00:00,00:00,00:00,00:00,00:00,00:00,00:00,00:00,00:00
Late By,,,,,,,,,,,,,,,,,,,,,,,,,,,,,,,
Early By,,,,,,,,,,,,,,,,,,,,,,,,,,,,,,,
OT,,,,,,,,,,,,,,,,,,,,,,,,,,,,,,,
Shift,GS,GS,GS,GS,GS,GS,GS,GS,GS,GS,GS,GS,GS,GS,GS,GS,GS,GS,GS,GS,GS,GS,GS,GS,GS,GS,GS,GS,GS,GS,GS
Komal Sawant,,,,,,,,,,,,,,,,,,,,,,,,,,,,,,,
Days,1 Th,2 F,3 St,4 S,5 M,6 T,7 W,8 Th,9 F,10 St,11 S,12 M,13 T,14 W,15 Th,16 F,17 St,18 S,19 M,20 T,21 W,22 Th,23 F,24 St,25 S,26 M,27 T,28 W,29 Th,30 F,31 St
Status,P,P,P,WO,P,P,P,P,P,P,WO,P,P,P,A,P,A,WO,A,P,P,P,P,½P,WO,P,P,P,P,P,P
InTime,09:04,09:11,09:11,,08:55,09:09,09:11,09:05,09:02,09:19,,09:08,09:07,09:13,,09:12,,,,09:08,09:12,09:13,09:07,09:27,,09:06,09:16,09:19,09:15,09:15,09:09
OutTime,,,,,,,,,,,,,,,,,,,,,,,,13:10,,,,,,,
Duration,09:26,09:19,09:19,00:00,09:35,09:21,09:19,09:25,09:28,09:11,00:00,09:22,09:23,09:17,00:00,09:18,00:00,00:00,00:00,09:22,09:18,09:17,09:23,03:43,00:00,09:24,09:14,09:11,09:15,09:15,09:21
Late By,,,,,,,,,,,,,,,,,,,,,,,,,,,,,,,
Early By,,,,,,,,,,,,,,,,,,,,,,,,05:19,,,,,,,
OT,,,,,,,,,,,,,,,,,,,,,,,,,,,,,,,
Shift,GS,GS,GS,GS,GS,GS,GS,GS,GS,GS,GS,GS,GS,GS,GS,GS,GS,GS,GS,GS,GS,GS,GS,GS,GS,GS,GS,GS,GS,GS,GS
Rahul Dey,,,,,,,,,,,,,,,,,,,,,,,,,,,,,,,
Days,1 Th,2 F,3 St,4 S,5 M,6 T,7 W,8 Th,9 F,10 St,11 S,12 M,13 T,14 W,15 Th,16 F,17 St,18 S,19 M,20 T,21 W,22 Th,23 F,24 St,25 S,26 M,27 T,28 W,29 Th,30 F,31 St
Status,A,A,A,WO,A,A,A,A,A,A,WO,A,A,A,A,A,A,WO,A,A,A,A,A,A,WO,A,A,A,A,A,A
InTime,,,,,,,,,,,,,,,,,,,,,,,,,,,,,,,
OutTime,,,,,,,,,,,,,,,,,,,,,,,,,,,,,,,
Duration,00:00,00:00,00:00,00:00,00:00,00:00,00:00,00:00,00:00,00:00,00:00,00:00,00:00,00:00,00:00,00:00,00:00,00:00,00:00,00:00,00:00,00:00,00:00,00:00,00:00,00:00,00:00,00:00,00:00,00:00,00:00
Late By,,,,,,,,,,,,,,,,,,,,,,,,,,,,,,,
Early By,,,,,,,,,,,,,,,,,,,,,,,,,,,,,,,
OT,,,,,,,,,,,,,,,,,,,,,,,,,,,,,,,
Shift,GS,GS,GS,GS,GS,GS,GS,GS,GS,GS,GS,GS,GS,GS,GS,GS,GS,GS,GS,GS,GS,GS,GS,GS,GS,GS,GS,GS,GS,GS,GS
Shweta Pai,,,,,,,,,,,,,,,,,,,,,,,,,,,,,,,
Days,1 Th,2 F,3 St,4 S,5 M,6 T,7 W,8 Th,9 F,10 St,11 S,12 M,13 T,14 W,15 Th,16 F,17 St,18 S,19 M,20 T,21 W,22 Th,23 F,24 St,25 S,26 M,27 T,28 W,29 Th,30 F,31 St
Status,A,A,A,WO,A,A,A,A,A,A,WO,A,A,A,A,A,A,WO,A,A,A,A,A,A,WO,A,A,A,A,A,A
InTime,,,,,,,,,,,,,,,,,,,,,,,,,,,,,,,
OutTime,,,,,,,,,,,,,,,,,,,,,,,,,,,,,,,
Duration,00:00,00:00,00:00,00:00,00:00,00:00,00:00,00:00,00:00,00:00,00:00,00:00,00:00,00:00,00:00,00:00,00:00,00:00,00:00,00:00,00:00,00:00,00:00,00:00,00:00,00:00,00:00,00:00,00:00,00:00,00:00
Late By,,,,,,,,,,,,,,,,,,,,,,,,,,,,,,,
Early By,,,,,,,,,,,,,,,,,,,,,,,,,,,,,,,
OT,,,,,,,,,,,,,,,,,,,,,,,,,,,,,,,
Shift,GS,GS,GS,GS,GS,GS,GS,GS,GS,GS,GS,GS,GS,GS,GS,GS,GS,GS,GS,GS,GS,GS,GS,GS,GS,GS,GS,GS,GS,GS,GS
Gaurav Suke,,,,,,,,,,,,,,,,,,,,,,,,,,,,,,,
Days,1 Th,2 F,3 St,4 S,5 M,6 T,7 W,8 Th,9 F,10 St,11 S,12 M,13 T,14 W,15 Th,16 F,17 St,18 S,19 M,20 T,21 W,22 Th,23 F,24 St,25 S,26 M,27 T,28 W,29 Th,30 F,31 St
Status,½P,½P,A,WO,A,A,A,A,A,A,WO,A,A,½P,A,A,A,WO,A,A,½P,A,A,A,WO,A,A,A,A,A,A
InTime,19:43,20:02,,,,,,,,,,,,19:42,,,,,,,19:08,,,,,,,,,,
OutTime,20:10,,,,,,,,,,,,,,,,,,,,,,,,,,,,,,
Duration,00:27,00:01,00:00,00:00,00:00,00:00,00:00,00:00,00:00,00:00,00:00,00:00,00:00,00:01,00:00,00:00,00:00,00:00,00:00,00:00,00:01,00:00,00:00,00:00,00:00,00:00,00:00,00:00,00:00,00:00,00:00
Late By,10:13,10:32,,,,,,,,,,,,10:12,,,,,,,09:38,,,,,,,,,,
Early By,,,,,,,,,,,,,,,,,,,,,,,,,,,,,,,
OT,,06:27,,,,,,,,,,,,06:47,,,,,,,07:21,,,,,,,,,,
Shift,GS,GS,GS,GS,GS,GS,GS,GS,GS,GS,GS,GS,GS,GS,GS,GS,GS,GS,GS,GS,GS,GS,GS,GS,GS,GS,GS,GS,GS,GS,GS
Joanita Francis,,,,,,,,,,,,,,,,,,,,,,,,,,,,,,,
Days,1 Th,2 F,3 St,4 S,5 M,6 T,7 W,8 Th,9 F,10 St,11 S,12 M,13 T,14 W,15 Th,16 F,17 St,18 S,19 M,20 T,21 W,22 Th,23 F,24 St,25 S,26 M,27 T,28 W,29 Th,30 F,31 St
Status,A,A,A,WO,A,A,A,A,A,A,WO,A,A,A,A,A,A,WO,A,A,A,A,A,A,WO,A,A,A,A,A,A
InTime,,,,,,,,,,,,,,,,,,,,,,,,,,,,,,,
OutTime,,,,,,,,,,,,,,,,,,,,,,,,,,,,,,,
Duration,00:00,00:00,00:00,00:00,00:00,00:00,00:00,00:00,00:00,00:00,00:00,00:00,00:00,00:00,00:00,00:00,00:00,00:00,00:00,00:00,00:00,00:00,00:00,00:00,00:00,00:00,00:00,00:00,00:00,00:00,00:00
Late By,,,,,,,,,,,,,,,,,,,,,,,,,,,,,,,
Early By,,,,,,,,,,,,,,,,,,,,,,,,,,,,,,,
OT,,,,,,,,,,,,,,,,,,,,,,,,,,,,,,,
Shift,GS,GS,GS,GS,GS,GS,GS,GS,GS,GS,GS,GS,GS,GS,GS,GS,GS,GS,GS,GS,GS,GS,GS,GS,GS,GS,GS,GS,GS,GS,GS
Sampradnya Majarekar,,,,,,,,,,,,,,,,,,,,,,,,,,,,,,,
Days,1 Th,2 F,3 St,4 S,5 M,6 T,7 W,8 Th,9 F,10 St,11 S,12 M,13 T,14 W,15 Th,16 F,17 St,18 S,19 M,20 T,21 W,22 Th,23 F,24 St,25 S,26 M,27 T,28 W,29 Th,30 F,31 St
Status,P,P,P,WO,P,P,P,P,P,P,WO,P,P,P,A,P,½P,WO,A,P,P,P,P,P,WO,P,P,P,P,P,P
InTime,09:29,09:48,09:49,,09:19,09:49,09:43,09:49,09:37,09:18,,09:49,09:35,09:39,,09:38,19:35,,,09:51,09:37,09:43,09:54,09:47,,09:45,09:47,09:41,09:55,09:48,09:40
OutTime,19:58,21:24,14:59,,20:45,19:16,19:10,18:59,18:51,19:06,,20:16,19:40,19:17,,19:10,,,,19:09,19:15,19:09,19:16,19:35,,17:57,20:55,19:11,20:06,18:56,21:20
Duration,09:01,08:42,05:10,00:00,09:11,09:27,09:27,09:10,09:13,09:48,00:00,08:41,08:55,09:38,00:00,09:32,00:01,00:00,00:00,09:18,09:38,09:25,09:22,08:43,00:00,08:12,08:43,09:30,08:35,09:08,08:50
Late By,,,,,,,,,,,,,,,,,10:05,,,,,,,,,,,,,,
Early By,,,03:30,,,,,,,,,,,,,,,,,,,,,,,00:32,,,,,
OT,01:28,02:54,,,02:15,,,,,,,01:46,01:10,,,,06:54,,,,,,,01:05,,,02:25,,01:36,,02:50
Shift,GS,GS,GS,GS,GS,GS,GS,GS,GS,GS,GS,GS,GS,GS,GS,GS,GS,GS,GS,GS,GS,GS,GS,GS,GS,GS,GS,GS,GS,GS,GS
Priyanka Karnekar,,,,,,,,,,,,,,,,,,,,,,,,,,,,,,,
Days,1 Th,2 F,3 St,4 S,5 M,6 T,7 W,8 Th,9 F,10 St,11 S,12 M,13 T,14 W,15 Th,16 F,17 St,18 S,19 M,20 T,21 W,22 Th,23 F,24 St,25 S,26 M,27 T,28 W,29 Th,30 F,31 St
Status,P,P,P,WO,P,P,½P,P,P,½P,WO,P,P,P,A,P,P,WO,A,P,P,P,P,A,WO,P,P,P,P,P,P
InTime,09:35,09:11,09:41,,09:46,09:39,18:34,09:48,09:47,09:42,,09:44,09:55,09:58,,09:37,09:48,,,09:40,09:46,09:40,09:36,,,09:59,09:44,10:01,09:47,09:43,09:51
OutTime,18:33,18:22,19:35,,19:57,19:47,,21:21,21:48,09:51,,22:10,00:32,18:46,,18:32,18:04,,,18:58,18:54,18:57,19:17,,,19:07,18:47,19:08,18:58,19:41,18:51
Duration,08:58,09:11,08:49,00:00,08:44,08:51,00:01,08:42,08:43,00:09,00:00,08:46,08:35,08:47,00:00,08:55,08:16,00:00,00:00,09:18,09:08,09:17,09:41,00:00,00:00,09:08,09:03,09:07,09:11,08:47,09:00
Late By,,,,,,,09:04,,,,,,,,,,,,,,,,,,,,,00:31,,,
Early By,,,,,,,,,,08:38,,,,,,,,,,,,,,,,,,,,,
OT,,,01:05,,01:27,01:17,07:55,02:51,03:18,,,03:40,06:02,,,,,,,,,,,,,,,,,01:11,
Shift,GS,GS,GS,GS,GS,GS,GS,GS,GS,GS,GS,GS,GS,GS,GS,GS,GS,GS,GS,GS,GS,GS,GS,GS,GS,GS,GS,GS,GS,GS,GS
Kishore,,,,,,,,,,,,,,,,,,,,,,,,,,,,,,,
Days,1 Th,2 F,3 St,4 S,5 M,6 T,7 W,8 Th,9 F,10 St,11 S,12 M,13 T,14 W,15 Th,16 F,17 St,18 S,19 M,20 T,21 W,22 Th,23 F,24 St,25 S,26 M,27 T,28 W,29 Th,30 F,31 St
Status,A,A,A,WO,A,A,A,A,A,A,WO,A,A,A,A,A,A,WO,A,A,A,A,A,A,WO,A,A,A,A,A,A
InTime,,,,,,,,,,,,,,,,,,,,,,,,,,,,,,,
OutTime,,,,,,,,,,,,,,,,,,,,,,,,,,,,,,,
Duration,00:00,00:00,00:00,00:00,00:00,00:00,00:00,00:00,00:00,00:00,00:00,00:00,00:00,00:00,00:00,00:00,00:00,00:00,00:00,00:00,00:00,00:00,00:00,00:00,00:00,00:00,00:00,00:00,00:00,00:00,00:00
Late By,,,,,,,,,,,,,,,,,,,,,,,,,,,,,,,
Early By,,,,,,,,,,,,,,,,,,,,,,,,,,,,,,,
OT,,,,,,,,,,,,,,,,,,,,,,,,,,,,,,,
Shift,GS,GS,GS,GS,GS,GS,GS,GS,GS,GS,GS,GS,GS,GS,GS,GS,GS,GS,GS,GS,GS,GS,GS,GS,GS,GS,GS,GS,GS,GS,GS
Vidya,,,,,,,,,,,,,,,,,,,,,,,,,,,,,,,
Days,1 Th,2 F,3 St,4 S,5 M,6 T,7 W,8 Th,9 F,10 St,11 S,12 M,13 T,14 W,15 Th,16 F,17 St,18 S,19 M,20 T,21 W,22 Th,23 F,24 St,25 S,26 M,27 T,28 W,29 Th,30 F,31 St
Status,A,A,A,WO,A,A,A,A,A,A,WO,A,A,A,A,A,A,WO,A,A,A,A,A,A,WO,A,A,A,A,A,A
InTime,,,,,,,,,,,,,,,,,,,,,,,,,,,,,,,
OutTime,,,,,,,,,,,,,,,,,,,,,,,,,,,,,,,
Duration,00:00,00:00,00:00,00:00,00:00,00:00,00:00,00:00,00:00,00:00,00:00,00:00,00:00,00:00,00:00,00:00,00:00,00:00,00:00,00:00,00:00,00:00,00:00,00:00,00:00,00:00,00:00,00:00,00:00,00:00,00:00
Late By,,,,,,,,,,,,,,,,,,,,,,,,,,,,,,,
Early By,,,,,,,,,,,,,,,,,,,,,,,,,,,,,,,
OT,,,,,,,,,,,,,,,,,,,,,,,,,,,,,,,
Shift,GS,GS,GS,GS,GS,GS,GS,GS,GS,GS,GS,GS,GS,GS,GS,GS,GS,GS,GS,GS,GS,GS,GS,GS,GS,GS,GS,GS,GS,GS,GS
Saibaz,,,,,,,,,,,,,,,,,,,,,,,,,,,,,,,
Days,1 Th,2 F,3 St,4 S,5 M,6 T,7 W,8 Th,9 F,10 St,11 S,12 M,13 T,14 W,15 Th,16 F,17 St,18 S,19 M,20 T,21 W,22 Th,23 F,24 St,25 S,26 M,27 T,28 W,29 Th,30 F,31 St
Status,P,P,A,WO,P,P,P,P,P,P,WO,P,P,P,A,P,P,WO,A,P,P,P,P,A,WO,A,P,P,P,P,P
InTime,09:46,09:25,,,09:21,09:25,09:37,09:31,09:36,09:41,,09:31,09:32,09:28,,09:29,09:19,,,09:27,09:38,09:35,09:39,,,,09:25,09:26,09:32,09:24,09:43
OutTime,18:32,18:55,,,18:38,18:36,18:34,18:34,18:38,18:43,,18:31,18:30,18:30,,18:30,18:38,,,18:32,19:08,18:31,18:31,,,,18:31,18:34,18:32,18:34,18:45
Duration,08:46,09:30,00:00,00:00,09:17,09:11,08:57,09:03,09:02,09:02,00:00,09:00,08:58,09:02,00:00,09:01,09:19,00:00,00:00,09:05,09:30,08:56,08:52,00:00,00:00,00:00,09:06,09:08,09:00,09:10,09:02
Late By,,,,,,,,,,,,,,,,,,,,,,,,,,,,,,,
Early By,,,,,,,,,,,,,,,,,,,,,,,,,,,,,,,
OT,,,,,,,,,,,,,,,,,,,,,,,,,,,,,,,
Shift,GS,GS,GS,GS,GS,GS,GS,GS,GS,GS,GS,GS,GS,GS,GS,GS,GS,GS,GS,GS,GS,GS,GS,GS,GS,GS,GS,GS,GS,GS,GS
Rahul Jaiswal,,,,,,,,,,,,,,,,,,,,,,,,,,,,,,,
Days,1 Th,2 F,3 St,4 S,5 M,6 T,7 W,8 Th,9 F,10 St,11 S,12 M,13 T,14 W,15 Th,16 F,17 St,18 S,19 M,20 T,21 W,22 Th,23 F,24 St,25 S,26 M,27 T,28 W,29 Th,30 F,31 St
Status,P,P,P,WO,P,P,P,P,P,A,WO,P,P,P,A,P,P,WO,A,P,½P,P,P,P,WO,P,P,P,P,P,P
InTime,10:06,10:07,10:22,,09:56,10:04,10:08,09:50,09:51,,,14:10,09:46,10:22,,13:53,10:00,,,09:44,18:41,14:13,09:34,09:58,,09:57,10:28,09:50,10:02,10:05,10:21
OutTime,18:39,18:44,,,18:48,18:38,19:17,18:57,18:47,,,18:49,18:55,18:29,,18:38,18:39,,,18:34,,19:03,19:26,,,19:18,18:52,,18:41,18:48,18:45
Duration,08:33,08:37,08:08,00:00,08:52,08:34,09:09,09:07,08:56,00:00,00:00,04:39,09:09,08:07,00:00,04:45,08:39,00:00,00:00,08:50,00:01,04:50,09:52,08:32,00:00,09:21,08:24,08:40,08:39,08:43,08:24
Late By,00:36,00:37,00:52,,,00:34,00:38,,,,,04:40,,00:52,,04:23,,,,,09:11,04:43,,,,,00:58,,00:32,00:35,00:51
Early By,,,,,,,,,,,,,,,,,,,,,,,,,,,,,,,
OT,,,,,,,,,,,,,,,,,,,,,07:48,,,,,,,,,,
Shift,GS,GS,GS,GS,GS,GS,GS,GS,GS,GS,GS,GS,GS,GS,GS,GS,GS,GS,GS,GS,GS,GS,GS,GS,GS,GS,GS,GS,GS,GS,GS
Kajal,,,,,,,,,,,,,,,,,,,,,,,,,,,,,,,
Days,1 Th,2 F,3 St,4 S,5 M,6 T,7 W,8 Th,9 F,10 St,11 S,12 M,13 T,14 W,15 Th,16 F,17 St,18 S,19 M,20 T,21 W,22 Th,23 F,24 St,25 S,26 M,27 T,28 W,29 Th,30 F,31 St
Status,A,A,A,WO,A,A,A,A,A,A,WO,A,A,A,A,A,A,WO,A,A,A,A,A,A,WO,A,A,A,A,A,A
InTime,,,,,,,,,,,,,,,,,,,,,,,,,,,,,,,
OutTime,,,,,,,,,,,,,,,,,,,,,,,,,,,,,,,
Duration,00:00,00:00,00:00,00:00,00:00,00:00,00:00,00:00,00:00,00:00,00:00,00:00,00:00,00:00,00:00,00:00,00:00,00:00,00:00,00:00,00:00,00:00,00:00,00:00,00:00,00:00,00:00,00:00,00:00,00:00,00:00
Late By,,,,,,,,,,,,,,,,,,,,,,,,,,,,,,,
Early By,,,,,,,,,,,,,,,,,,,,,,,,,,,,,,,
OT,,,,,,,,,,,,,,,,,,,,,,,,,,,,,,,
Shift,GS,GS,GS,GS,GS,GS,GS,GS,GS,GS,GS,GS,GS,GS,GS,GS,GS,GS,GS,GS,GS,GS,GS,GS,GS,GS,GS,GS,GS,GS,GS
Shivanshu,,,,,,,,,,,,,,,,,,,,,,,,,,,,,,,
Days,1 Th,2 F,3 St,4 S,5 M,6 T,7 W,8 Th,9 F,10 St,11 S,12 M,13 T,14 W,15 Th,16 F,17 St,18 S,19 M,20 T,21 W,22 Th,23 F,24 St,25 S,26 M,27 T,28 W,29 Th,30 F,31 St
Status,P,P,P,WO,P,P,P,P,P,P,WO,P,P,½P,A,A,A,WO,A,P,P,P,P,P,WO,P,P,P,P,P,P
InTime,10:00,10:15,09:59,,10:23,10:25,09:44,09:42,10:05,09:51,,09:55,10:13,10:16,,,,,,09:37,09:53,09:52,10:03,10:09,,10:10,09:56,10:09,10:08,10:04,10:21
OutTime,19:22,21:24,19:35,,19:05,18:50,18:52,19:34,18:55,18:56,,19:23,18:58,12:52,,,,,,18:43,18:41,18:39,19:02,19:31,,18:40,20:55,18:58,18:59,18:47,21:20
Duration,09:18,08:15,08:31,00:00,08:42,08:25,09:08,08:48,08:50,09:05,00:00,09:28,08:45,02:36,00:00,00:00,00:00,00:00,00:00,09:06,08:48,08:47,08:59,08:21,00:00,08:30,08:34,08:49,08:50,08:43,08:09
Late By,00:34,00:45,,,00:53,00:55,,,00:35,,,,00:43,00:46,,,,,,,,,00:33,00:39,,00:40,,00:39,00:38,00:34,00:51
Early By,,,,,,,,,,,,,,05:37,,,,,,,,,,,,,,,,,
OT,,02:54,01:05,,,,,01:04,,,,,,,,,,,,,,,,01:01,,,02:25,,,,02:50
Shift,GS,GS,GS,GS,GS,GS,GS,GS,GS,GS,GS,GS,GS,GS,GS,GS,GS,GS,GS,GS,GS,GS,GS,GS,GS,GS,GS,GS,GS,GS,GS
Soham,,,,,,,,,,,,,,,,,,,,,,,,,,,,,,,
Days,1 Th,2 F,3 St,4 S,5 M,6 T,7 W,8 Th,9 F,10 St,11 S,12 M,13 T,14 W,15 Th,16 F,17 St,18 S,19 M,20 T,21 W,22 Th,23 F,24 St,25 S,26 M,27 T,28 W,29 Th,30 F,31 St
Status,A,A,A,WO,A,A,A,A,A,A,WO,A,P,P,A,P,P,WO,A,P,P,P,P,P,WO,P,P,P,P,P,P
InTime,,,,,,,,,,,,,09:38,09:47,,09:43,09:44,,,09:41,09:33,10:11,09:55,09:49,,09:46,09:44,10:06,09:46,09:47,09:41
OutTime,,,,,,,,,,,,,18:45,18:47,,18:41,18:47,,,18:32,14:44,18:43,18:56,19:06,,,18:37,18:55,18:48,18:42,18:55
Duration,00:00,00:00,00:00,00:00,00:00,00:00,00:00,00:00,00:00,00:00,00:00,00:00,09:07,09:00,00:00,08:58,09:03,00:00,00:00,08:51,05:11,08:32,09:01,09:17,00:00,08:44,08:53,08:49,09:02,08:55,09:14
Late By,,,,,,,,,,,,,,,,,,,,,,00:41,,,,,,00:36,,,
Early By,,,,,,,,,,,,,,,,,,,,,03:45,,,,,,,,,,
OT,,,,,,,,,,,,,,,,,,,,,,,,,,,,,,,
Shift,GS,GS,GS,GS,GS,GS,GS,GS,GS,GS,GS,GS,GS,GS,GS,GS,GS,GS,GS,GS,GS,GS,GS,GS,GS,GS,GS,GS,GS,GS,GS
Hitesh,,,,,,,,,,,,,,,,,,,,,,,,,,,,,,,
Days,1 Th,2 F,3 St,4 S,5 M,6 T,7 W,8 Th,9 F,10 St,11 S,12 M,13 T,14 W,15 Th,16 F,17 St,18 S,19 M,20 T,21 W,22 Th,23 F,24 St,25 S,26 M,27 T,28 W,29 Th,30 F,31 St
Status,A,P,P,WO,P,P,P,P,P,A,WO,P,P,P,A,P,P,WO,A,P,P,P,P,P,WO,P,P,P,P,P,P
InTime,,09:56,09:56,,10:09,09:57,09:45,09:35,09:44,,,09:55,09:58,09:44,,09:53,09:54,,,09:42,09:43,09:43,09:55,09:45,,09:55,09:35,09:58,09:41,09:43,09:27
OutTime,,18:57,18:57,,19:08,18:58,18:43,20:50,19:33,,,19:33,18:59,18:31,,18:54,18:49,,,19:04,19:05,18:44,19:04,18:45,,19:04,18:36,19:00,18:51,18:47,18:45
Duration,00:00,09:01,09:01,00:00,08:59,09:01,08:58,08:55,08:46,00:00,00:00,08:35,09:01,08:47,00:00,09:01,08:55,00:00,00:00,09:22,09:22,09:01,09:09,09:00,00:00,09:09,09:01,09:02,09:10,09:04,09:18
Late By,,,,,00:39,,,,,,,,,,,,,,,,,,,,,,,,,,
Early By,,,,,,,,,,,,,,,,,,,,,,,,,,,,,,,
OT,,,,,,,,02:20,01:03,,,01:03,,,,,,,,,,,,,,,,,,,
Shift,GS,GS,GS,GS,GS,GS,GS,GS,GS,GS,GS,GS,GS,GS,GS,GS,GS,GS,GS,GS,GS,GS,GS,GS,GS,GS,GS,GS,GS,GS,GS
Kajal Lokhande,,,,,,,,,,,,,,,,,,,,,,,,,,,,,,,
Days,1 Th,2 F,3 St,4 S,5 M,6 T,7 W,8 Th,9 F,10 St,11 S,12 M,13 T,14 W,15 Th,16 F,17 St,18 S,19 M,20 T,21 W,22 Th,23 F,24 St,25 S,26 M,27 T,28 W,29 Th,30 F,31 St
Status,P,P,P,WO,P,P,P,P,P,P,WO,P,P,P,A,P,A,WO,A,P,P,P,P,P,WO,A,A,A,A,P,P
InTime,09:49,10:07,09:51,,10:18,09:48,09:50,09:54,10:03,10:01,,09:30,10:03,11:28,,09:56,,,,10:04,09:48,09:40,10:01,10:06,,,,,,09:48,10:07
OutTime,19:01,19:02,19:05,,19:57,19:45,19:11,20:28,21:47,20:40,,22:09,00:33,18:45,,18:56,,,,19:05,18:54,18:57,19:16,19:23,,,,,,19:06,19:08
Duration,09:12,08:55,09:14,00:00,08:12,08:42,09:21,08:36,08:27,08:29,00:00,09:00,08:27,07:17,00:00,09:00,00:00,00:00,00:00,09:01,09:06,09:17,09:15,09:17,00:00,00:00,00:00,00:00,00:00,09:18,09:01
Late By,,00:37,,,00:48,,,,00:33,00:31,,,00:33,01:58,,,,,,00:34,,,00:31,00:36,,,,,,,00:37
Early By,,,,,,,,,,,,,,,,,,,,,,,,,,,,,,,
OT,,,,,01:27,01:15,,01:58,03:17,02:10,,03:39,06:03,,,,,,,,,,,,,,,,,,
Shift,GS,GS,GS,GS,GS,GS,GS,GS,GS,GS,GS,GS,GS,GS,GS,GS,GS,GS,GS,GS,GS,GS,GS,GS,GS,GS,GS,GS,GS,GS,GS
Khushal Shah,,,,,,,,,,,,,,,,,,,,,,,,,,,,,,,
Days,1 Th,2 F,3 St,4 S,5 M,6 T,7 W,8 Th,9 F,10 St,11 S,12 M,13 T,14 W,15 Th,16 F,17 St,18 S,19 M,20 T,21 W,22 Th,23 F,24 St,25 S,26 M,27 T,28 W,29 Th,30 F,31 St
Status,P,P,P,WO,P,P,P,P,P,A,WO,P,P,P,A,P,P,WO,A,P,P,P,P,P,WO,P,P,P,P,P,P
InTime,09:30,09:34,09:37,,09:42,09:44,09:33,09:49,09:29,,,09:32,09:45,10:04,,09:26,09:45,,,09:29,09:56,09:28,09:58,09:53,,09:46,10:03,09:54,09:37,09:57,09:56
OutTime,18:31,18:35,18:37,,18:40,18:42,18:36,18:54,18:31,,,18:33,18:45,19:17,,18:30,18:48,,,18:31,19:08,18:31,18:59,19:06,,18:47,19:01,19:04,18:38,18:56,18:55
Duration,09:01,09:01,09:00,00:00,08:56,08:58,09:02,09:05,09:02,00:00,00:00,09:01,09:00,09:13,00:00,09:04,09:03,00:00,00:00,09:02,09:12,09:03,09:01,09:13,00:00,09:01,08:58,09:10,09:01,08:59,08:59
Late By,,,,,,,,,,,,,,00:34,,,,,,,,,,,,,00:33,,,,
Early By,,,,,,,,,,,,,,,,,,,,,,,,,,,,,,,
OT,,,,,,,,,,,,,,,,,,,,,,,,,,,,,,,
Shift,GS,GS,GS,GS,GS,GS,GS,GS,GS,GS,GS,GS,GS,GS,GS,GS,GS,GS,GS,GS,GS,GS,GS,GS,GS,GS,GS,GS,GS,GS,GS
Yashoda,,,,,,,,,,,,,,,,,,,,,,,,,,,,,,,
Days,1 Th,2 F,3 St,4 S,5 M,6 T,7 W,8 Th,9 F,10 St,11 S,12 M,13 T,14 W,15 Th,16 F,17 St,18 S,19 M,20 T,21 W,22 Th,23 F,24 St,25 S,26 M,27 T,28 W,29 Th,30 F,31 St
Status,P,½P,A,WO,A,½P,P,P,P,P,WO,P,P,P,A,P,P,WO,A,P,P,P,P,P,WO,P,P,P,P,P,P
InTime,10:14,19:04,,,,18:47,10:24,10:10,10:15,10:15,,10:16,10:16,10:11,,10:06,10:32,,,10:19,10:12,10:34,09:53,10:09,,09:47,14:25,10:19,10:19,10:17,09:42
OutTime,19:14,,,,,,19:13,19:00,19:18,19:27,,19:16,19:30,18:54,,19:10,19:12,,,19:19,19:00,19:10,17:28,18:54,,18:52,18:55,17:36,19:09,19:03,17:04
Duration,09:00,00:01,00:00,00:00,00:00,00:01,08:49,08:50,09:03,09:12,00:00,09:00,08:14,08:43,00:00,09:04,08:40,00:00,00:00,09:00,08:48,08:36,07:35,08:45,00:00,09:05,04:30,07:17,08:50,08:46,07:22
Late By,00:44,09:34,,,,09:17,00:54,00:40,00:45,00:45,,00:46,00:46,00:41,,00:36,01:02,,,00:49,00:42,01:04,,00:39,,,04:55,00:49,00:49,00:47,
Early By,,,,,,,,,,,,,,,,,,,,,,,01:01,,,,,00:53,,,01:25
OT,,07:25,,,,07:42,,,,,,,01:00,,,,,,,,,,,,,,,,,,
Shift,GS,GS,GS,GS,GS,GS,GS,GS,GS,GS,GS,GS,GS,GS,GS,GS,GS,GS,GS,GS,GS,GS,GS,GS,GS,GS,GS,GS,GS,GS,GS
Afreen,,,,,,,,,,,,,,,,,,,,,,,,,,,,,,,
Days,1 Th,2 F,3 St,4 S,5 M,6 T,7 W,8 Th,9 F,10 St,11 S,12 M,13 T,14 W,15 Th,16 F,17 St,18 S,19 M,20 T,21 W,22 Th,23 F,24 St,25 S,26 M,27 T,28 W,29 Th,30 F,31 St
Status,A,A,A,WO,A,A,A,A,A,A,WO,A,A,A,A,A,A,WO,A,A,A,A,A,A,WO,A,A,A,A,A,A
InTime,,,,,,,,,,,,,,,,,,,,,,,,,,,,,,,
OutTime,,,,,,,,,,,,,,,,,,,,,,,,,,,,,,,
Duration,00:00,00:00,00:00,00:00,00:00,00:00,00:00,00:00,00:00,00:00,00:00,00:00,00:00,00:00,00:00,00:00,00:00,00:00,00:00,00:00,00:00,00:00,00:00,00:00,00:00,00:00,00:00,00:00,00:00,00:00,00:00
Late By,,,,,,,,,,,,,,,,,,,,,,,,,,,,,,,
Early By,,,,,,,,,,,,,,,,,,,,,,,,,,,,,,,
OT,,,,,,,,,,,,,,,,,,,,,,,,,,,,,,,
Shift,GS,GS,GS,GS,GS,GS,GS,GS,GS,GS,GS,GS,GS,GS,GS,GS,GS,GS,GS,GS,GS,GS,GS,GS,GS,GS,GS,GS,GS,GS,GS
Suchit Shah,,,,,,,,,,,,,,,,,,,,,,,,,,,,,,,
Days,1 Th,2 F,3 St,4 S,5 M,6 T,7 W,8 Th,9 F,10 St,11 S,12 M,13 T,14 W,15 Th,16 F,17 St,18 S,19 M,20 T,21 W,22 Th,23 F,24 St,25 S,26 M,27 T,28 W,29 Th,30 F,31 St
Status,A,A,A,WO,A,A,A,A,A,A,WO,A,A,A,A,A,A,WO,A,A,A,A,A,A,WO,A,A,A,A,A,A
InTime,,,,,,,,,,,,,,,,,,,,,,,,,,,,,,,
OutTime,,,,,,,,,,,,,,,,,,,,,,,,,,,,,,,
Duration,00:00,00:00,00:00,00:00,00:00,00:00,00:00,00:00,00:00,00:00,00:00,00:00,00:00,00:00,00:00,00:00,00:00,00:00,00:00,00:00,00:00,00:00,00:00,00:00,00:00,00:00,00:00,00:00,00:00,00:00,00:00
Late By,,,,,,,,,,,,,,,,,,,,,,,,,,,,,,,
Early By,,,,,,,,,,,,,,,,,,,,,,,,,,,,,,,
OT,,,,,,,,,,,,,,,,,,,,,,,,,,,,,,,
Shift,GS,GS,GS,GS,GS,GS,GS,GS,GS,GS,GS,GS,GS,GS,GS,GS,GS,GS,GS,GS,GS,GS,GS,GS,GS,GS,GS,GS,GS,GS,GS
Sahil,,,,,,,,,,,,,,,,,,,,,,,,,,,,,,,
Days,1 Th,2 F,3 St,4 S,5 M,6 T,7 W,8 Th,9 F,10 St,11 S,12 M,13 T,14 W,15 Th,16 F,17 St,18 S,19 M,20 T,21 W,22 Th,23 F,24 St,25 S,26 M,27 T,28 W,29 Th,30 F,31 St
Status,A,A,A,WO,A,A,A,A,A,A,WO,A,A,A,A,A,A,WO,A,A,A,A,A,A,WO,A,A,A,A,A,A
InTime,,,,,,,,,,,,,,,,,,,,,,,,,,,,,,,
OutTime,,,,,,,,,,,,,,,,,,,,,,,,,,,,,,,
Duration,00:00,00:00,00:00,00:00,00:00,00:00,00:00,00:00,00:00,00:00,00:00,00:00,00:00,00:00,00:00,00:00,00:00,00:00,00:00,00:00,00:00,00:00,00:00,00:00,00:00,00:00,00:00,00:00,00:00,00:00,00:00
Late By,,,,,,,,,,,,,,,,,,,,,,,,,,,,,,,
Early By,,,,,,,,,,,,,,,,,,,,,,,,,,,,,,,
OT,,,,,,,,,,,,,,,,,,,,,,,,,,,,,,,
Shift,GS,GS,GS,GS,GS,GS,GS,GS,GS,GS,GS,GS,GS,GS,GS,GS,GS,GS,GS,GS,GS,GS,GS,GS,GS,GS,GS,GS,GS,GS,GS
Manoj Vispute,,,,,,,,,,,,,,,,,,,,,,,,,,,,,,,
Days,1 Th,2 F,3 St,4 S,5 M,6 T,7 W,8 Th,9 F,10 St,11 S,12 M,13 T,14 W,15 Th,16 F,17 St,18 S,19 M,20 T,21 W,22 Th,23 F,24 St,25 S,26 M,27 T,28 W,29 Th,30 F,31 St
Status,A,A,P,WO,A,A,A,A,A,A,WO,A,A,A,A,A,A,WO,A,A,A,A,A,P,WO,A,P,A,A,A,P
InTime,,,10:08,,,,,,,,,,,,,,,,,,,,,10:11,,,10:12,,,,09:11
OutTime,,,18:47,,,,,,,,,,,,,,,,,,,,,18:40,,,18:52,,,,
Duration,00:00,00:00,08:39,00:00,00:00,00:00,00:00,00:00,00:00,00:00,00:00,00:00,00:00,00:00,00:00,00:00,00:00,00:00,00:00,00:00,00:00,00:00,00:00,08:29,00:00,00:00,08:40,00:00,00:00,00:00,09:19
Late By,,,00:38,,,,,,,,,,,,,,,,,,,,,00:41,,,00:42,,,,
Early By,,,,,,,,,,,,,,,,,,,,,,,,,,,,,,,
OT,,,,,,,,,,,,,,,,,,,,,,,,,,,,,,,
Shift,GS,GS,GS,GS,GS,GS,GS,GS,GS,GS,GS,GS,GS,GS,GS,GS,GS,GS,GS,GS,GS,GS,GS,GS,GS,GS,GS,GS,GS,GS,GS
Namita Pawar,,,,,,,,,,,,,,,,,,,,,,,,,,,,,,,
Days,1 Th,2 F,3 St,4 S,5 M,6 T,7 W,8 Th,9 F,10 St,11 S,12 M,13 T,14 W,15 Th,16 F,17 St,18 S,19 M,20 T,21 W,22 Th,23 F,24 St,25 S,26 M,27 T,28 W,29 Th,30 F,31 St
Status,A,A,A,WO,A,A,A,A,A,A,WO,A,A,A,A,A,A,WO,A,A,A,A,A,A,WO,A,A,A,A,A,A
InTime,,,,,,,,,,,,,,,,,,,,,,,,,,,,,,,
OutTime,,,,,,,,,,,,,,,,,,,,,,,,,,,,,,,
Duration,00:00,00:00,00:00,00:00,00:00,00:00,00:00,00:00,00:00,00:00,00:00,00:00,00:00,00:00,00:00,00:00,00:00,00:00,00:00,00:00,00:00,00:00,00:00,00:00,00:00,00:00,00:00,00:00,00:00,00:00,00:00
Late By,,,,,,,,,,,,,,,,,,,,,,,,,,,,,,,
Early By,,,,,,,,,,,,,,,,,,,,,,,,,,,,,,,
OT,,,,,,,,,,,,,,,,,,,,,,,,,,,,,,,
Shift,GS,GS,GS,GS,GS,GS,GS,GS,GS,GS,GS,GS,GS,GS,GS,GS,GS,GS,GS,GS,GS,GS,GS,GS,GS,GS,GS,GS,GS,GS,GS
Urvi,,,,,,,,,,,,,,,,,,,,,,,,,,,,,,,
Days,1 Th,2 F,3 St,4 S,5 M,6 T,7 W,8 Th,9 F,10 St,11 S,12 M,13 T,14 W,15 Th,16 F,17 St,18 S,19 M,20 T,21 W,22 Th,23 F,24 St,25 S,26 M,27 T,28 W,29 Th,30 F,31 St
Status,A,A,A,WO,A,A,A,A,A,A,WO,A,A,A,A,A,A,WO,A,A,A,A,A,A,WO,A,A,A,A,A,A
InTime,,,,,,,,,,,,,,,,,,,,,,,,,,,,,,,
OutTime,,,,,,,,,,,,,,,,,,,,,,,,,,,,,,,
Duration,00:00,00:00,00:00,00:00,00:00,00:00,00:00,00:00,00:00,00:00,00:00,00:00,00:00,00:00,00:00,00:00,00:00,00:00,00:00,00:00,00:00,00:00,00:00,00:00,00:00,00:00,00:00,00:00,00:00,00:00,00:00
Late By,,,,,,,,,,,,,,,,,,,,,,,,,,,,,,,
Early By,,,,,,,,,,,,,,,,,,,,,,,,,,,,,,,
OT,,,,,,,,,,,,,,,,,,,,,,,,,,,,,,,
Shift,GS,GS,GS,GS,GS,GS,GS,GS,GS,GS,GS,GS,GS,GS,GS,GS,GS,GS,GS,GS,GS,GS,GS,GS,GS,GS,GS,GS,GS,GS,GS
Tejas,,,,,,,,,,,,,,,,,,,,,,,,,,,,,,,
Days,1 Th,2 F,3 St,4 S,5 M,6 T,7 W,8 Th,9 F,10 St,11 S,12 M,13 T,14 W,15 Th,16 F,17 St,18 S,19 M,20 T,21 W,22 Th,23 F,24 St,25 S,26 M,27 T,28 W,29 Th,30 F,31 St
Status,A,A,A,WO,A,A,A,A,A,A,WO,A,A,A,A,A,A,WO,A,A,A,A,A,A,WO,A,A,A,A,A,A
InTime,,,,,,,,,,,,,,,,,,,,,,,,,,,,,,,
OutTime,,,,,,,,,,,,,,,,,,,,,,,,,,,,,,,
Duration,00:00,00:00,00:00,00:00,00:00,00:00,00:00,00:00,00:00,00:00,00:00,00:00,00:00,00:00,00:00,00:00,00:00,00:00,00:00,00:00,00:00,00:00,00:00,00:00,00:00,00:00,00:00,00:00,00:00,00:00,00:00
Late By,,,,,,,,,,,,,,,,,,,,,,,,,,,,,,,
Early By,,,,,,,,,,,,,,,,,,,,,,,,,,,,,,,
OT,,,,,,,,,,,,,,,,,,,,,,,,,,,,,,,
Shift,GS,GS,GS,GS,GS,GS,GS,GS,GS,GS,GS,GS,GS,GS,GS,GS,GS,GS,GS,GS,GS,GS,GS,GS,GS,GS,GS,GS,GS,GS,GS
Shrey,,,,,,,,,,,,,,,,,,,,,,,,,,,,,,,
Days,1 Th,2 F,3 St,4 S,5 M,6 T,7 W,8 Th,9 F,10 St,11 S,12 M,13 T,14 W,15 Th,16 F,17 St,18 S,19 M,20 T,21 W,22 Th,23 F,24 St,25 S,26 M,27 T,28 W,29 Th,30 F,31 St
Status,A,A,A,WO,A,A,A,A,A,A,WO,A,A,A,A,A,A,WO,A,A,A,A,A,A,WO,A,A,A,A,A,A
InTime,,,,,,,,,,,,,,,,,,,,,,,,,,,,,,,
OutTime,,,,,,,,,,,,,,,,,,,,,,,,,,,,,,,
Duration,00:00,00:00,00:00,00:00,00:00,00:00,00:00,00:00,00:00,00:00,00:00,00:00,00:00,00:00,00:00,00:00,00:00,00:00,00:00,00:00,00:00,00:00,00:00,00:00,00:00,00:00,00:00,00:00,00:00,00:00,00:00
Late By,,,,,,,,,,,,,,,,,,,,,,,,,,,,,,,
Early By,,,,,,,,,,,,,,,,,,,,,,,,,,,,,,,
OT,,,,,,,,,,,,,,,,,,,,,,,,,,,,,,,
Shift,GS,GS,GS,GS,GS,GS,GS,GS,GS,GS,GS,GS,GS,GS,GS,GS,GS,GS,GS,GS,GS,GS,GS,GS,GS,GS,GS,GS,GS,GS,GS
Yogesh,,,,,,,,,,,,,,,,,,,,,,,,,,,,,,,
Days,1 Th,2 F,3 St,4 S,5 M,6 T,7 W,8 Th,9 F,10 St,11 S,12 M,13 T,14 W,15 Th,16 F,17 St,18 S,19 M,20 T,21 W,22 Th,23 F,24 St,25 S,26 M,27 T,28 W,29 Th,30 F,31 St
Status,A,A,A,WO,A,A,A,A,A,A,WO,A,A,A,A,A,A,WO,A,A,A,A,A,A,WO,A,A,A,A,A,A
InTime,,,,,,,,,,,,,,,,,,,,,,,,,,,,,,,
OutTime,,,,,,,,,,,,,,,,,,,,,,,,,,,,,,,
Duration,00:00,00:00,00:00,00:00,00:00,00:00,00:00,00:00,00:00,00:00,00:00,00:00,00:00,00:00,00:00,00:00,00:00,00:00,00:00,00:00,00:00,00:00,00:00,00:00,00:00,00:00,00:00,00:00,00:00,00:00,00:00
Late By,,,,,,,,,,,,,,,,,,,,,,,,,,,,,,,
Early By,,,,,,,,,,,,,,,,,,,,,,,,,,,,,,,
OT,,,,,,,,,,,,,,,,,,,,,,,,,,,,,,,
Shift,GS,GS,GS,GS,GS,GS,GS,GS,GS,GS,GS,GS,GS,GS,GS,GS,GS,GS,GS,GS,GS,GS,GS,GS,GS,GS,GS,GS,GS,GS,GS
Neha Ganatra,,,,,,,,,,,,,,,,,,,,,,,,,,,,,,,
Days,1 Th,2 F,3 St,4 S,5 M,6 T,7 W,8 Th,9 F,10 St,11 S,12 M,13 T,14 W,15 Th,16 F,17 St,18 S,19 M,20 T,21 W,22 Th,23 F,24 St,25 S,26 M,27 T,28 W,29 Th,30 F,31 St
Status,A,P,P,WO,P,P,P,P,P,P,WO,P,P,P,A,P,P,WO,A,P,P,P,P,A,WO,A,A,P,A,A,P
InTime,,09:52,10:03,,09:52,09:54,09:54,09:54,09:58,09:59,,09:55,10:00,10:00,,09:53,09:45,,,09:57,09:53,09:54,09:55,,,,,09:59,,,09:35
OutTime,,20:23,19:21,,19:28,19:02,19:46,19:45,19:27,19:23,,18:57,19:00,18:51,,18:57,18:48,,,19:08,19:12,18:52,19:16,,,,,19:05,,,17:28
Duration,00:00,08:38,09:18,00:00,09:36,09:08,08:36,08:36,09:29,09:24,00:00,09:02,09:00,08:51,00:00,09:04,09:03,00:00,00:00,09:11,09:19,08:58,09:21,00:00,00:00,00:00,00:00,09:06,00:00,00:00,07:53
Late By,,,00:33,,,,,,,,,,,,,,,,,,,,,,,,,,,,
Early By,,,,,,,,,,,,,,,,,,,,,,,,,,,,,,,01:01
OT,,01:53,,,,,01:16,01:15,,,,,,,,,,,,,,,,,,,,,,,
Shift,GS,GS,GS,GS,GS,GS,GS,GS,GS,GS,GS,GS,GS,GS,GS,GS,GS,GS,GS,GS,GS,GS,GS,GS,GS,GS,GS,GS,GS,GS,GS
Nusrat Sayed,,,,,,,,,,,,,,,,,,,,,,,,,,,,,,,
Days,1 Th,2 F,3 St,4 S,5 M,6 T,7 W,8 Th,9 F,10 St,11 S,12 M,13 T,14 W,15 Th,16 F,17 St,18 S,19 M,20 T,21 W,22 Th,23 F,24 St,25 S,26 M,27 T,28 W,29 Th,30 F,31 St
Status,A,P,P,WO,A,P,P,P,P,A,WO,P,½P,P,A,P,P,WO,A,P,P,P,P,P,WO,P,P,P,P,P,P
InTime,,10:28,09:53,,,09:49,09:45,10:01,09:49,,,09:44,09:46,09:36,,09:48,09:41,,,09:49,09:46,09:48,09:53,09:49,,09:41,09:57,09:57,09:54,09:48,09:51
OutTime,,19:38,19:34,,,19:32,21:42,19:44,20:20,,,18:46,14:15,18:48,,19:08,18:48,,,22:13,19:41,18:46,19:05,,,18:58,19:04,19:04,19:10,18:54,19:00
Duration,00:00,08:02,08:37,00:00,00:00,08:41,08:45,08:29,08:41,00:00,00:00,09:02,04:29,09:12,00:00,09:20,09:07,00:00,00:00,08:41,08:44,08:58,09:12,08:41,00:00,09:17,09:07,09:07,09:16,09:06,09:09
Late By,,00:58,,,,,,00:31,,,,,,,,,,,,,,,,,,,,,,,
Early By,,,,,,,,,,,,,04:14,,,,,,,,,,,,,,,,,,
OT,,01:08,01:04,,,01:02,03:12,01:14,01:50,,,,,,,,,,,03:43,01:11,,,,,,,,,,
Shift,GS,GS,GS,GS,GS,GS,GS,GS,GS,GS,GS,GS,GS,GS,GS,GS,GS,GS,GS,GS,GS,GS,GS,GS,GS,GS,GS,GS,GS,GS,GS
Shahab,,,,,,,,,,,,,,,,,,,,,,,,,,,,,,,
Days,1 Th,2 F,3 St,4 S,5 M,6 T,7 W,8 Th,9 F,10 St,11 S,12 M,13 T,14 W,15 Th,16 F,17 St,18 S,19 M,20 T,21 W,22 Th,23 F,24 St,25 S,26 M,27 T,28 W,29 Th,30 F,31 St
Status,P,P,A,WO,P,P,P,P,P,P,WO,P,P,P,A,A,A,WO,A,P,P,P,P,P,WO,P,P,P,P,P,P
InTime,10:02,09:39,,,09:44,09:50,09:49,09:49,09:52,09:46,,09:41,09:44,10:00,,,,,,09:49,09:34,09:44,09:54,10:01,,09:44,09:44,09:48,09:49,09:40,09:48
OutTime,19:02,18:37,,,18:56,18:49,18:54,18:54,19:08,19:07,,18:44,18:44,18:47,,,,,,18:49,19:09,18:44,18:54,18:51,,18:45,18:49,18:49,18:53,18:43,18:48
Duration,09:00,08:58,00:00,00:00,09:12,08:59,09:05,09:05,09:16,09:21,00:00,09:03,09:00,08:47,00:00,00:00,00:00,00:00,00:00,09:00,09:35,09:00,09:00,08:50,00:00,09:01,09:05,09:01,09:04,09:03,09:00
Late By,00:32,,,,,,,,,,,,,,,,,,,,,,,00:31,,,,,,,
Early By,,,,,,,,,,,,,,,,,,,,,,,,,,,,,,,
OT,,,,,,,,,,,,,,,,,,,,,,,,,,,,,,,
Shift,GS,GS,GS,GS,GS,GS,GS,GS,GS,GS,GS,GS,GS,GS,GS,GS,GS,GS,GS,GS,GS,GS,GS,GS,GS,GS,GS,GS,GS,GS,GS
Manisha,,,,,,,,,,,,,,,,,,,,,,,,,,,,,,,
Days,1 Th,2 F,3 St,4 S,5 M,6 T,7 W,8 Th,9 F,10 St,11 S,12 M,13 T,14 W,15 Th,16 F,17 St,18 S,19 M,20 T,21 W,22 Th,23 F,24 St,25 S,26 M,27 T,28 W,29 Th,30 F,31 St
Status,A,A,A,WO,A,A,A,A,A,A,WO,A,A,A,A,A,A,WO,A,A,A,A,A,A,WO,A,A,A,A,A,A
InTime,,,,,,,,,,,,,,,,,,,,,,,,,,,,,,,
OutTime,,,,,,,,,,,,,,,,,,,,,,,,,,,,,,,
Duration,00:00,00:00,00:00,00:00,00:00,00:00,00:00,00:00,00:00,00:00,00:00,00:00,00:00,00:00,00:00,00:00,00:00,00:00,00:00,00:00,00:00,00:00,00:00,00:00,00:00,00:00,00:00,00:00,00:00,00:00,00:00
Late By,,,,,,,,,,,,,,,,,,,,,,,,,,,,,,,
Early By,,,,,,,,,,,,,,,,,,,,,,,,,,,,,,,
OT,,,,,,,,,,,,,,,,,,,,,,,,,,,,,,,
Shift,NS,NS,NS,NS,NS,NS,NS,NS,NS,NS,NS,NS,NS,NS,NS,NS,NS,NS,NS,NS,NS,NS,NS,NS,NS,NS,NS,NS,NS,NS,NS
Pranjal,,,,,,,,,,,,,,,,,,,,,,,,,,,,,,,
Days,1 Th,2 F,3 St,4 S,5 M,6 T,7 W,8 Th,9 F,10 St,11 S,12 M,13 T,14 W,15 Th,16 F,17 St,18 S,19 M,20 T,21 W,22 Th,23 F,24 St,25 S,26 M,27 T,28 W,29 Th,30 F,31 St
Status,A,A,A,WO,A,A,A,A,A,A,WO,A,A,A,A,A,A,WO,A,A,A,A,A,A,WO,A,A,A,A,A,A
InTime,,,,,,,,,,,,,,,,,,,,,,,,,,,,,,,
OutTime,,,,,,,,,,,,,,,,,,,,,,,,,,,,,,,
Duration,00:00,00:00,00:00,00:00,00:00,00:00,00:00,00:00,00:00,00:00,00:00,00:00,00:00,00:00,00:00,00:00,00:00,00:00,00:00,00:00,00:00,00:00,00:00,00:00,00:00,00:00,00:00,00:00,00:00,00:00,00:00
Late By,,,,,,,,,,,,,,,,,,,,,,,,,,,,,,,
Early By,,,,,,,,,,,,,,,,,,,,,,,,,,,,,,,
OT,,,,,,,,,,,,,,,,,,,,,,,,,,,,,,,
Shift,GS,GS,GS,GS,GS,GS,GS,GS,GS,GS,GS,GS,GS,GS,GS,GS,GS,GS,GS,GS,GS,GS,GS,GS,GS,GS,GS,GS,GS,GS,GS
Abdul Razak Parkar,,,,,,,,,,,,,,,,,,,,,,,,,,,,,,,
Days,1 Th,2 F,3 St,4 S,5 M,6 T,7 W,8 Th,9 F,10 St,11 S,12 M,13 T,14 W,15 Th,16 F,17 St,18 S,19 M,20 T,21 W,22 Th,23 F,24 St,25 S,26 M,27 T,28 W,29 Th,30 F,31 St
Status,A,P,P,WO,P,P,P,P,P,P,WO,P,P,P,A,P,P,WO,A,P,P,P,P,A,WO,P,P,P,A,P,A
InTime,,09:52,09:39,,09:28,09:52,09:37,09:44,09:36,09:42,,10:05,09:44,09:28,,09:29,09:54,,,09:41,09:38,09:17,09:39,,,09:33,09:50,09:36,,09:32,
OutTime,,18:39,18:39,,18:34,18:36,18:34,18:53,18:38,18:32,,18:37,19:08,18:30,,18:30,18:33,,,18:32,19:07,18:31,,,,18:33,18:32,18:34,,18:32,
Duration,00:00,08:47,09:00,00:00,09:06,08:44,08:57,09:09,09:02,08:50,00:00,08:32,09:24,09:02,00:00,09:01,08:39,00:00,00:00,08:51,09:29,09:14,08:51,00:00,00:00,09:00,08:42,08:58,00:00,09:00,00:00
Late By,,,,,,,,,,,,00:35,,,,,,,,,,,,,,,,,,,
Early By,,,,,,,,,,,,,,,,,,,,,,,,,,,,,,,
OT,,,,,,,,,,,,,,,,,,,,,,,,,,,,,,,
Shift,GS,GS,GS,GS,GS,GS,GS,GS,GS,GS,GS,GS,GS,GS,GS,GS,GS,GS,GS,GS,GS,GS,GS,GS,GS,GS,GS,GS,GS,GS,GS
Sandra Madhusudhanan,,,,,,,,,,,,,,,,,,,,,,,,,,,,,,,
Days,1 Th,2 F,3 St,4 S,5 M,6 T,7 W,8 Th,9 F,10 St,11 S,12 M,13 T,14 W,15 Th,16 F,17 St,18 S,19 M,20 T,21 W,22 Th,23 F,24 St,25 S,26 M,27 T,28 W,29 Th,30 F,31 St
Status,P,P,P,WO,P,P,P,P,P,P,WO,P,P,P,A,P,P,WO,A,A,P,P,P,P,WO,A,P,P,P,P,P
InTime,10:05,09:55,09:53,,09:50,09:53,09:58,10:03,10:03,10:02,,10:06,10:04,09:46,,10:07,09:41,,,,10:09,10:00,10:05,09:40,,,09:39,09:53,09:54,09:48,10:05
OutTime,19:25,19:09,19:19,,19:32,18:58,18:49,19:12,19:17,19:16,,18:57,19:14,18:48,,18:37,18:42,,,,19:14,18:55,19:17,18:42,,,18:54,19:01,19:08,19:54,18:56
Duration,09:20,09:14,09:26,00:00,08:40,09:05,08:51,09:09,09:14,09:14,00:00,08:51,09:10,09:02,00:00,08:30,09:01,00:00,00:00,00:00,09:05,08:55,09:12,09:02,00:00,00:00,09:15,09:08,09:14,08:42,08:51
Late By,00:35,,,,,,,00:33,00:33,00:32,,00:36,00:34,,,00:37,,,,,00:39,,00:35,,,,,,,,00:35
Early By,,,,,,,,,,,,,,,,,,,,,,,,,,,,,,,
OT,,,,,01:02,,,,,,,,,,,,,,,,,,,,,,,,,01:24,
Shift,GS,GS,GS,GS,GS,GS,GS,GS,GS,GS,GS,GS,GS,GS,GS,GS,GS,GS,GS,GS,GS,GS,GS,GS,GS,GS,GS,GS,GS,GS,GS
Samiksha,,,,,,,,,,,,,,,,,,,,,,,,,,,,,,,
Days,1 Th,2 F,3 St,4 S,5 M,6 T,7 W,8 Th,9 F,10 St,11 S,12 M,13 T,14 W,15 Th,16 F,17 St,18 S,19 M,20 T,21 W,22 Th,23 F,24 St,25 S,26 M,27 T,28 W,29 Th,30 F,31 St
Status,A,A,A,WO,A,A,A,A,A,A,WO,A,A,A,A,A,A,WO,A,A,A,A,A,A,WO,A,A,A,A,A,A
InTime,,,,,,,,,,,,,,,,,,,,,,,,,,,,,,,
OutTime,,,,,,,,,,,,,,,,,,,,,,,,,,,,,,,
Duration,00:00,00:00,00:00,00:00,00:00,00:00,00:00,00:00,00:00,00:00,00:00,00:00,00:00,00:00,00:00,00:00,00:00,00:00,00:00,00:00,00:00,00:00,00:00,00:00,00:00,00:00,00:00,00:00,00:00,00:00,00:00
Late By,,,,,,,,,,,,,,,,,,,,,,,,,,,,,,,
Early By,,,,,,,,,,,,,,,,,,,,,,,,,,,,,,,
OT,,,,,,,,,,,,,,,,,,,,,,,,,,,,,,,
Shift,GS,GS,GS,GS,GS,GS,GS,GS,GS,GS,GS,GS,GS,GS,GS,GS,GS,GS,GS,GS,GS,GS,GS,GS,GS,GS,GS,GS,GS,GS,GS
Pakshal Shah,,,,,,,,,,,,,,,,,,,,,,,,,,,,,,,
Days,1 Th,2 F,3 St,4 S,5 M,6 T,7 W,8 Th,9 F,10 St,11 S,12 M,13 T,14 W,15 Th,16 F,17 St,18 S,19 M,20 T,21 W,22 Th,23 F,24 St,25 S,26 M,27 T,28 W,29 Th,30 F,31 St
Status,P,P,P,WO,P,P,P,P,P,P,WO,P,P,P,A,P,P,WO,A,P,P,P,P,P,WO,P,P,P,P,P,P
InTime,10:00,10:07,10:08,,10:08,10:05,10:04,10:18,10:06,10:13,,10:04,10:00,10:08,,10:10,09:58,,,10:09,10:16,10:22,10:35,09:57,,10:17,10:09,10:19,10:11,10:16,10:19
OutTime,19:13,19:12,19:12,,19:13,19:14,19:13,19:14,19:16,19:10,,19:12,19:09,19:06,,19:08,19:02,,,19:29,19:10,19:11,19:12,19:07,,18:51,19:11,19:14,19:13,19:27,18:59
Duration,09:13,09:05,09:04,00:00,09:05,09:09,09:09,08:56,09:10,08:57,00:00,09:08,09:09,08:58,00:00,08:58,09:04,00:00,00:00,09:20,08:54,08:49,08:37,09:10,00:00,08:34,09:02,08:55,09:02,09:11,08:40
Late By,,00:37,00:38,,00:38,00:35,00:34,00:48,00:36,00:43,,00:34,,00:38,,00:40,,,,00:39,00:46,00:52,01:05,,,00:47,00:39,00:49,00:41,00:46,00:49
Early By,,,,,,,,,,,,,,,,,,,,,,,,,,,,,,,
OT,,,,,,,,,,,,,,,,,,,,,,,,,,,,,,,
Shift,GS,GS,GS,GS,GS,GS,GS,GS,GS,GS,GS,GS,GS,GS,GS,GS,GS,GS,GS,GS,GS,GS,GS,GS,GS,GS,GS,GS,GS,GS,GS
Siddharth,,,,,,,,,,,,,,,,,,,,,,,,,,,,,,,
Days,1 Th,2 F,3 St,4 S,5 M,6 T,7 W,8 Th,9 F,10 St,11 S,12 M,13 T,14 W,15 Th,16 F,17 St,18 S,19 M,20 T,21 W,22 Th,23 F,24 St,25 S,26 M,27 T,28 W,29 Th,30 F,31 St
Status,A,A,A,WO,A,A,A,A,A,A,WO,A,A,A,A,A,A,WO,A,A,A,A,A,A,WO,A,A,A,A,A,A
InTime,,,,,,,,,,,,,,,,,,,,,,,,,,,,,,,
OutTime,,,,,,,,,,,,,,,,,,,,,,,,,,,,,,,
Duration,00:00,00:00,00:00,00:00,00:00,00:00,00:00,00:00,00:00,00:00,00:00,00:00,00:00,00:00,00:00,00:00,00:00,00:00,00:00,00:00,00:00,00:00,00:00,00:00,00:00,00:00,00:00,00:00,00:00,00:00,00:00
Late By,,,,,,,,,,,,,,,,,,,,,,,,,,,,,,,
Early By,,,,,,,,,,,,,,,,,,,,,,,,,,,,,,,
OT,,,,,,,,,,,,,,,,,,,,,,,,,,,,,,,
Shift,GS,GS,GS,GS,GS,GS,GS,GS,GS,GS,GS,GS,GS,GS,GS,GS,GS,GS,GS,GS,GS,GS,GS,GS,GS,GS,GS,GS,GS,GS,GS
Esha Chavan,,,,,,,,,,,,,,,,,,,,,,,,,,,,,,,
Days,1 Th,2 F,3 St,4 S,5 M,6 T,7 W,8 Th,9 F,10 St,11 S,12 M,13 T,14 W,15 Th,16 F,17 St,18 S,19 M,20 T,21 W,22 Th,23 F,24 St,25 S,26 M,27 T,28 W,29 Th,30 F,31 St
Status,P,P,P,WO,P,P,P,P,P,P,WO,P,P,P,A,P,A,WO,A,P,P,P,P,A,WO,P,A,A,A,A,A
InTime,09:52,09:50,09:50,,09:50,10:02,09:51,09:52,09:57,09:40,,09:41,09:38,09:50,,09:53,,,,09:48,09:37,09:37,09:50,,,09:49,,,,,
OutTime,18:48,18:37,18:40,,18:50,18:49,18:47,18:41,18:57,18:34,,18:44,18:38,18:41,,18:40,,,,18:45,18:44,18:34,18:39,,,18:37,,,,,
Duration,08:56,08:47,08:50,00:00,09:00,08:47,08:56,08:49,09:00,08:54,00:00,09:03,09:00,08:51,00:00,08:47,00:00,00:00,00:00,08:57,09:07,08:57,08:49,00:00,00:00,08:48,00:00,00:00,00:00,00:00,00:00
Late By,,,,,,00:32,,,,,,,,,,,,,,,,,,,,,,,,,
Early By,,,,,,,,,,,,,,,,,,,,,,,,,,,,,,,
OT,,,,,,,,,,,,,,,,,,,,,,,,,,,,,,,
Shift,GS,GS,GS,GS,GS,GS,GS,GS,GS,GS,GS,GS,GS,GS,GS,GS,GS,GS,GS,GS,GS,GS,GS,GS,GS,GS,GS,GS,GS,GS,GS
Shaswat Kumar,,,,,,,,,,,,,,,,,,,,,,,,,,,,,,,
Days,1 Th,2 F,3 St,4 S,5 M,6 T,7 W,8 Th,9 F,10 St,11 S,12 M,13 T,14 W,15 Th,16 F,17 St,18 S,19 M,20 T,21 W,22 Th,23 F,24 St,25 S,26 M,27 T,28 W,29 Th,30 F,31 St
Status,A,A,P,WO,A,P,P,A,A,P,WO,P,A,P,A,A,A,WO,A,A,A,A,A,P,WO,A,P,A,A,A,A
InTime,,,11:48,,,10:12,09:36,,,10:45,,09:44,,10:28,,,,,,,,,,10:19,,,10:10,,,,
OutTime,,,18:47,,,,,,,19:22,,,,18:37,,,,,,,,,,18:46,,,19:01,,,,
Duration,00:00,00:00,06:59,00:00,00:00,08:18,08:54,00:00,00:00,08:37,00:00,08:46,00:00,08:09,00:00,00:00,00:00,00:00,00:00,00:00,00:00,00:00,00:00,08:27,00:00,00:00,08:51,00:00,00:00,00:00,00:00
Late By,,,02:18,,,00:42,,,,01:15,,,,00:58,,,,,,,,,,00:49,,,00:40,,,,
Early By,,,,,,,,,,,,,,,,,,,,,,,,,,,,,,,
OT,,,,,,,,,,,,,,,,,,,,,,,,,,,,,,,
Shift,GS,GS,GS,GS,GS,GS,GS,GS,GS,GS,GS,GS,GS,GS,GS,GS,GS,GS,GS,GS,GS,GS,GS,GS,GS,GS,GS,GS,GS,GS,GS
Anjali Ashokkumar,,,,,,,,,,,,,,,,,,,,,,,,,,,,,,,
Days,1 Th,2 F,3 St,4 S,5 M,6 T,7 W,8 Th,9 F,10 St,11 S,12 M,13 T,14 W,15 Th,16 F,17 St,18 S,19 M,20 T,21 W,22 Th,23 F,24 St,25 S,26 M,27 T,28 W,29 Th,30 F,31 St
Status,P,P,P,WO,P,P,P,P,P,P,WO,P,P,P,A,P,P,WO,A,P,P,P,P,P,WO,P,P,P,P,P,P
